STATE,COUNTY,STNAME,CTYNAME,POPESTIMATE2018,fips,lat,long,year55andolder,DMPercentage,hospcount,icubeds,60yrsandolder,plus_pct,RUCA,ruca3gp,Smokers,PrimaryCarePhysicians,PCP,PCPRatio,pctobesity,ruca2gp,Rural,age25_49,tot_pop,tot_male,tot_female,whites,black,lesshighschool,highschooldiploma,somecollegeandassociate,bachelorsandhigher,povertycounts,medianhouseholdinc,associationcount,associationrate, FairPoor Health,Physically Unhealthy Days,Diabetic
1,1,Alabama,Autauga County,55601,1001,32.539528,-86.644081,15817,9.9,1,6,10523,0.191,1,Metropolitan,19,23,41.50426,2409:01:00,37.5,Metropolitan/Urban,0,22187,55601,26995,28606,42660,10915,11.3,32.6,28.4,27.7,7587,59338,70,12.63173091,18,4.2,14
1,3,Alabama,Baldwin County,218022,1003,30.727751,-87.722069,75980,8.5,3,51,53519,0.263,3,Metropolitan,17,152,72.87966,1372:01:00,31,Metropolitan/Urban,0,79264,218022,105657,112365,190301,19492,9.7,27.6,31.3,31.3,21069,57588,223,10.6922129,18,4.1,11
1,5,Alabama,Barbour County,24881,1005,31.868263,-85.387131,8043,15.7,1,5,6150,0.235,8,Rural and Small towns,22,10,38.51338,2597:01:00,44.3,"Low comuting micropolitan, Rural and Small towns",1,9674,24881,13133,11748,12209,12042,27,35.7,25.1,12.2,6788,34382,22,8.472944348,26,5.1,18
1,7,Alabama,Bibb County,22400,1007,32.996422,-87.125114,6587,13.3,1,0,4773,0.211,2,Metropolitan,20,13,57.41289,1742:01:00,37.8,Metropolitan/Urban,0,9458,22400,11921,10479,17211,4770,16.8,47.3,24.4,11.5,4400,46064,23,10.15766462,20,4.4,15
1,9,Alabama,Blount County,57840,1009,33.982109,-86.567909,18178,14.9,1,6,13600,0.236,5,Micropolitan,20,13,22.52877,4439:01:00,34.4,Metropolitan/Urban,1,21819,57840,28500,29340,55456,950,19.8,34,33.5,12.6,7527,50412,52,9.011507001,21,4.5,14
1,11,Alabama,Bullock County,10138,1011,32.100304,-85.712654,3091,22.4,1,0,2371,0.226,2,Metropolitan,23,3,28.95194,3454:01:00,39.4,Metropolitan/Urban,0,4093,10138,5527,4611,2661,7168,24.8,39.7,22.3,13.3,3610,29267,10,9.650646593,29,5.2,20
1,13,Alabama,Butler County,19680,1013,31.753,-86.680573,6796,16.9,1,7,5151,0.256,7,Rural and Small towns,22,6,30.003,3333:01:00,40.2,"Low comuting micropolitan, Rural and Small towns",1,6982,19680,9165,10515,10283,8839,15.4,43.9,24.6,16.1,4731,37365,23,11.50115012,27,5.1,18
1,15,Alabama,Calhoun County,114277,1015,33.774837,-85.826302,36205,15.6,2,24,27115,0.235,2,Metropolitan,20,74,64.56623,1549:01:00,37.1,Metropolitan/Urban,0,43008,114277,54914,59363,86026,24153,15.9,32.4,33.7,18,21719,45400,164,14.30927223,20,4.3,16
1,17,Alabama,Chambers County,33615,1017,32.913601,-85.390724,11512,17.5,0,0,8501,0.251,4,Micropolitan,22,17,50.23195,1991:01:00,40.3,Metropolitan/Urban,1,12415,33615,16093,17522,19182,13446,18.6,38.4,29.7,13.2,6181,39917,60,17.72892474,25,5.0,17
1,19,Alabama,Cherokee County,26032,1019,34.178059,-85.606392,10080,12.2,1,0,7513,0.291,3,Metropolitan,19,9,34.98542,2858:01:00,36.3,Metropolitan/Urban,0,9113,26032,12896,13136,24217,1109,19.8,38.3,29,12.9,4180,42132,26,10.1068999,19,4.3,14
1,21,Alabama,Chilton County,44153,1021,32.850441,-86.717323,13295,16.8,1,6,9429,0.215,6,Micropolitan,20,8,18.20623,5493:01:00,35.3,"Low comuting micropolitan, Rural and Small towns",1,16839,44153,21668,22485,38459,4579,17.8,44.1,24,14.2,7542,47547,72,16.38560797,21,4.7,15
1,23,Alabama,Choctaw County,12841,1023,32.022274,-88.265648,4965,13.9,1,0,3759,0.285,9,Rural and Small towns,19,5,38.48226,2599:01:00,41.3,"Low comuting micropolitan, Rural and Small towns",1,4369,12841,6070,6771,7343,5355,18.6,38.2,30.2,13,2806,39907,27,20.78042023,24,4.7,16
1,25,Alabama,Clarke County,23920,1025,31.680998,-87.835487,8202,20.1,2,0,6134,0.249,8,Rural and Small towns,21,14,57.39587,1742:01:00,39.6,"Low comuting micropolitan, Rural and Small towns",1,8536,23920,11328,12592,12781,10674,18.8,43.7,24.9,12.6,5381,40741,45,18.4486717,28,5.0,19
1,27,Alabama,Clay County,13275,1027,33.26984,-85.85836,4710,11.2,1,4,3480,0.26,5,Micropolitan,19,5,37.059,2698:01:00,37.7,Metropolitan/Urban,1,4801,13275,6492,6783,11046,1868,24.5,36.3,29.1,10.2,2285,39201,16,11.85887934,21,4.5,15
1,29,Alabama,Cleburne County,14987,1029,33.676792,-85.520058,4931,10.4,0,0,3691,0.247,3,Metropolitan,20,4,26.80247,3731:01:00,34.5,Metropolitan/Urban,0,5578,14987,7421,7566,14234,441,22.6,39.6,24.1,13.7,2356,46495,13,8.710801394,18,4.4,13
1,31,Alabama,Coffee County,51909,1031,31.399328,-85.989014,15309,14.4,1,7,11027,0.216,5,Micropolitan,18,28,54.65974,1830:01:00,33.4,Metropolitan/Urban,1,20182,51909,25521,26388,39368,9192,13.8,27.9,34.9,23.4,7053,55122,81,15.81228283,20,4.5,15
1,33,Alabama,Colbert County,54762,1033,34.698475,-87.801689,18659,13.5,2,22,14062,0.258,1,Metropolitan,18,37,68.24554,1465:01:00,32.5,Metropolitan/Urban,0,20424,54762,26259,28503,44138,8875,15.6,36,29.7,18.7,7459,49055,94,17.33805519,20,4.3,18
1,35,Alabama,Conecuh County,12277,1035,31.434017,-86.993202,4679,23.7,1,0,3542,0.28,7,Rural and Small towns,23,6,48.40662,2066:01:00,38.7,"Low comuting micropolitan, Rural and Small towns",1,4110,12277,5881,6396,6339,5680,19.2,48.8,21.3,10.7,2979,32613,12,9.681323114,29,5.6,20
1,37,Alabama,Coosa County,10715,1037,32.936901,-86.248474,4409,17.9,0,0,3145,0.287,5,Micropolitan,21,,30.77455967,,40.4,Metropolitan/Urban,1,3798,10715,5399,5316,7167,3309,20.4,38.6,29.5,11.6,1973,42423,10,9.450902561,24,4.8,19
1,39,Alabama,Covington County,36986,1039,31.247786,-86.450508,13289,12.9,2,13,10290,0.274,7,Rural and Small towns,21,19,50.72348,1971:01:00,33.4,"Low comuting micropolitan, Rural and Small towns",1,13000,36986,17896,19090,31269,4664,17.1,35.4,32.5,14.9,7239,40203,50,13.34828341,22,4.8,15
1,41,Alabama,Crenshaw County,13824,1041,31.729418,-86.315933,4628,16.3,1,0,3371,0.243,4,Micropolitan,20,2,14.37504,6957:01:00,38.2,Metropolitan/Urban,1,4993,13824,6674,7150,10062,3244,21.6,38.8,24,15.6,2661,39057,15,10.78128369,22,4.6,16
1,43,Alabama,Cullman County,83442,1043,34.130203,-86.868881,26818,17.2,1,12,19667,0.241,5,Micropolitan,20,48,58.20228,1718:01:00,34.5,Metropolitan/Urban,1,31493,83442,41245,42197,79985,1116,18.2,35.6,32.4,13.7,11925,45796,104,12.61049339,21,4.5,16
1,45,Alabama,Dale County,48956,1045,31.43037,-85.610954,14690,14.4,1,6,10498,0.213,3,Metropolitan,19,8,16.25157,6153:01:00,37.3,Metropolitan/Urban,0,18773,48956,24023,24933,36119,10262,14.2,32.7,36.1,17,7743,45309,55,11.17295738,23,4.7,16
1,47,Alabama,Dallas County,38310,1047,32.326881,-87.108665,12578,13.9,1,18,9436,0.232,5,Micropolitan,22,30,74.985,1334:01:00,41.9,Metropolitan/Urban,1,13251,38310,17685,20625,10630,26994,19.3,35.2,30.4,15.1,11841,34035,56,13.99720056,29,5.1,17
1,49,Alabama,DeKalb County,71385,1049,34.459469,-85.807831,21642,11.2,1,12,15782,0.222,8,Rural and Small towns,22,30,42.31312,2363:01:00,30.4,"Low comuting micropolitan, Rural and Small towns",1,26747,71385,35428,35957,66184,1325,25.9,33.3,28.1,12.7,14975,39491,64,9.026798308,23,4.5,12
1,51,Alabama,Elmore County,81887,1051,32.597855,-86.14415,23169,14.9,2,5,15929,0.197,2,Metropolitan,19,22,26.89519,3718:01:00,36.1,Metropolitan/Urban,0,33670,81887,39585,42302,61800,17570,13.6,32.8,29,24.5,8559,60367,89,10.88032861,19,4.2,15
1,53,Alabama,Escambia County,36748,1053,31.125679,-87.159187,11397,17.1,2,14,8677,0.231,8,Rural and Small towns,21,15,39.75827,2515:01:00,38.4,"Low comuting micropolitan, Rural and Small towns",1,14322,36748,18628,18120,22792,11639,18.5,44.5,24.4,12.7,8022,38418,57,15.10814249,24,4.9,18
1,55,Alabama,Etowah County,102501,1055,34.045673,-86.04052,33522,13.5,2,56,25122,0.244,2,Metropolitan,23,81,78.97508,1266:01:00,36.1,Metropolitan/Urban,0,38580,102501,49653,52848,82796,16094,15.5,32.9,33.9,17.7,17509,44903,162,15.7950158,23,5.0,15
1,57,Alabama,Fayette County,16433,1057,33.720768,-87.738869,5836,21,2,12,4604,0.276,4,Micropolitan,20,19,114.83138,871:01:00,37.8,Metropolitan/Urban,1,5825,16433,8023,8410,14076,1970,17.6,41.5,27.9,12.9,3801,39254,17,10.27438656,20,4.6,16
1,59,Alabama,Franklin County,31363,1059,34.442352,-87.842896,9219,13.3,2,7,7054,0.224,6,Micropolitan,21,14,44.26458,2259:01:00,33,"Low comuting micropolitan, Rural and Small towns",1,11920,31363,15823,15540,28738,1427,23.2,36.8,27.1,12.9,5939,39388,31,9.80144176,22,4.7,14
1,61,Alabama,Geneva County,26314,1061,31.093891,-85.835732,9116,14.3,1,6,6716,0.253,3,Metropolitan,22,7,26.30195,3802:01:00,38,Metropolitan/Urban,0,9559,26314,12846,13468,22951,2491,20.9,37.2,30.8,11.1,5537,37823,24,9.017810175,24,4.9,16
1,63,Alabama,Greene County,8233,1063,32.855042,-87.956841,3101,11.3,1,0,2352,0.276,2,Metropolitan,24,5,59.36832,1684:01:00,42.1,Metropolitan/Urban,0,2676,8233,3887,4346,1519,6597,24.1,36.8,29,10.1,2459,28524,9,10.68629779,34,5.6,19
1,65,Alabama,Hale County,14726,1065,32.760391,-87.632851,4948,15.5,1,0,3945,0.263,2,Metropolitan,22,2,13.37614,7476:01:00,42,Metropolitan/Urban,0,5091,14726,7008,7718,5988,8561,16.4,42.6,26.9,14.1,3705,34724,9,6.019261637,27,5.2,16
1,67,Alabama,Henry County,17209,1067,31.51148,-85.242676,6300,13.7,0,0,4834,0.283,3,Metropolitan,20,5,29.13074,3433:01:00,37.9,Metropolitan/Urban,0,6167,17209,8300,8909,12280,4523,19.8,33.5,28.7,18,3037,46027,30,17.47844325,21,4.6,17
1,69,Alabama,Houston County,104722,1069,31.151979,-85.299393,32507,11.8,2,66,23474,0.225,1,Metropolitan,22,90,86.49189,1156:01:00,36,Metropolitan/Urban,0,40010,104722,50286,54436,72324,28491,14.3,31.6,33,21,17032,47993,136,13.06988545,24,4.8,15
1,71,Alabama,Jackson County,51736,1071,34.781441,-85.997505,18078,13.9,1,10,13441,0.257,5,Micropolitan,22,27,51.78565,1931:01:00,37,Metropolitan/Urban,1,19023,51736,25390,26346,47215,1855,17.5,40.8,27.5,14.2,10046,41929,48,9.206337029,20,4.6,16
1,73,Alabama,Jefferson County,659300,1073,33.555546,-86.895065,191178,11.7,8,471,138161,0.21,1,Metropolitan,18,714,108.26039,924:01:00,33.3,Metropolitan/Urban,0,259759,659300,311591,347709,350457,286501,10.3,26.8,30.6,32.4,103604,55013,956,14.49536861,20,4.0,13
1,75,Alabama,Lamar County,13844,1075,33.779949,-88.09668,5020,16,0,0,3811,0.272,7,Rural and Small towns,21,,59.62219014,,35,"Low comuting micropolitan, Rural and Small towns",1,4874,13844,6767,7077,12084,1466,17.6,39.9,30,12.5,2374,40936,12,8.621928438,25,4.9,16
1,77,Alabama,Lauderdale County,92387,1077,34.901718,-87.65625,31217,11.9,1,48,23452,0.253,2,Metropolitan,19,47,50.91098,1964:01:00,34.6,Metropolitan/Urban,0,32591,92387,44327,48060,80358,9298,12.6,36,27.5,23.9,12645,48707,139,15.05665201,19,4.3,14
1,79,Alabama,Lawrence County,32957,1079,34.520416,-87.310692,11023,16.9,1,6,7710,0.232,3,Metropolitan,21,5,15.04031,6649:01:00,35,Metropolitan/Urban,0,12369,32957,16047,16910,25772,3606,21,41.5,25.8,11.7,6297,43909,44,13.23547106,21,4.6,15
1,81,Alabama,Lee County,163941,1081,32.601547,-85.351326,37164,9.5,1,28,24513,0.157,1,Metropolitan,19,82,51.57525,1939:01:00,31.4,Metropolitan/Urban,0,62323,163941,80639,83302,115690,37852,9.5,24.1,32.3,34.1,30075,48937,129,8.113666811,19,4.2,10
1,83,Alabama,Limestone County,96174,1083,34.811855,-86.983101,27535,12.5,1,10,18399,0.201,3,Metropolitan,19,33,35.57836,2811:01:00,33.6,Metropolitan/Urban,0,39700,96174,48156,48018,78056,13320,15.7,30.3,28.5,25.5,10633,64863,87,9.37975052,18,4.0,12
1,85,Alabama,Lowndes County,9974,1085,32.159729,-86.651581,3381,11.4,0,0,2481,0.239,2,Metropolitan,22,1,9.65437,10358:1,46.2,Metropolitan/Urban,0,3578,9974,4670,5304,2585,7236,22.5,38.6,24.8,14.1,2474,33973,7,6.758061402,30,5.4,18
1,87,Alabama,Macon County,18439,1087,32.3876,-85.69268,6249,21.3,0,0,4854,0.251,5,Micropolitan,22,6,31.64056,3161:01:00,46.7,Metropolitan/Urban,1,5794,18439,8383,10056,3128,14886,18.3,30.1,30.9,20.7,5031,32495,15,7.910140801,30,5.2,19
1,89,Alabama,Madison County,366519,1089,34.763271,-86.550697,106655,12.4,2,100,70040,0.198,1,Metropolitan,16,315,88.24345,1133:01:00,31.8,Metropolitan/Urban,0,145217,366519,179074,187445,252338,91273,8.9,20.8,28.6,41.7,42667,63755,384,10.75729689,15,3.8,13
1,91,Alabama,Marengo County,19066,1091,32.247677,-87.787964,6416,14.9,1,5,5124,0.26,9,Rural and Small towns,21,8,40.66487,2459:01:00,40.7,"Low comuting micropolitan, Rural and Small towns",1,6800,19066,8933,10133,8939,9795,16.2,39.8,28.6,15.4,4499,37733,41,20.8407462,27,5.2,19
1,93,Alabama,Marion County,29763,1093,34.136974,-87.887039,10509,18.1,1,4,8196,0.273,10,Rural and Small towns,21,9,30.002,3333:01:00,36.4,"Low comuting micropolitan, Rural and Small towns",1,10860,29763,14686,15077,27986,1154,20.3,34.8,31.7,13.1,5844,37887,33,11.00073338,21,4.6,18
1,95,Alabama,Marshall County,96109,1095,34.369759,-86.304871,28954,10.2,1,20,21466,0.227,4,Micropolitan,22,56,58.85011,1699:01:00,33,Metropolitan/Urban,1,35538,96109,47502,48607,89384,2906,19.1,31.1,30.5,19.2,17341,46233,93,9.773321984,22,4.7,13
1,97,Alabama,Mobile County,413757,1097,30.784723,-88.208427,122053,12.6,4,157,88103,0.213,1,Metropolitan,19,272,65.56808,1525:01:00,36.9,Metropolitan/Urban,0,157959,413757,197077,216680,244947,149329,13.8,33.5,29.8,22.9,84539,43598,466,11.23335487,20,4.6,15
1,99,Alabama,Monroe County,21067,1099,31.567293,-87.369949,7405,15.7,1,8,5536,0.255,8,Rural and Small towns,22,8,37.15745,2691:01:00,39.1,"Low comuting micropolitan, Rural and Small towns",1,7348,21067,10005,11062,11612,8686,16.3,46.1,23.5,14.1,4560,39556,32,14.86298189,26,5.1,17
1,101,Alabama,Montgomery County,225763,1101,32.220684,-86.209694,62637,13,3,88,44214,0.195,1,Metropolitan,20,220,97.19504,1029:01:00,36.6,Metropolitan/Urban,0,88163,225763,106522,119241,81145,133229,14.4,25.5,28,32.1,43567,49640,341,15.06523113,21,4.3,13
1,103,Alabama,Morgan County,119089,1103,34.455006,-86.854759,37131,11.1,1,34,26739,0.224,1,Metropolitan,20,65,54.61634,1831:01:00,31.5,Metropolitan/Urban,0,45357,119089,58682,60407,98591,15539,16.7,29.6,32,21.7,15419,52797,147,12.35169563,20,4.6,13
1,105,Alabama,Perry County,9140,1105,32.640484,-87.297707,2957,13.6,0,0,2278,0.235,8,Rural and Small towns,23,3,31.33487,3191:01:00,44.9,"Low comuting micropolitan, Rural and Small towns",1,2870,9140,4281,4859,2791,6205,21.9,39.4,22.9,15.7,2943,26814,10,10.44495509,32,5.8,20
1,107,Alabama,Pickens County,19938,1107,33.280949,-88.088181,6662,12.7,1,4,4974,0.247,3,Metropolitan,21,8,39.36233,2541:01:00,36,Metropolitan/Urban,0,7693,19938,9948,9990,11530,8019,19.4,36.7,30.4,13.5,4177,37586,24,11.80869908,25,5.0,16
1,109,Alabama,Pike County,33338,1109,31.803965,-85.940826,8705,12.1,1,9,6441,0.193,4,Micropolitan,22,16,48.06826,2080:01:00,42.8,Metropolitan/Urban,1,10759,33338,16098,17240,19163,12562,19,33.3,24.2,23.6,7315,37259,35,10.5149312,22,4.9,13
1,111,Alabama,Randolph County,22725,1111,33.295269,-85.457085,7983,13.8,1,0,6129,0.272,7,Rural and Small towns,20,6,26.48773,3775:01:00,36.6,"Low comuting micropolitan, Rural and Small towns",1,7940,22725,11056,11669,17689,4428,21.2,36.3,27.5,14.9,4375,40546,24,10.59509094,22,4.6,15
1,113,Alabama,Russell County,57781,1113,32.287254,-85.184151,15675,18.2,1,8,10680,0.183,1,Metropolitan,22,13,22.34752,4475:01:00,40.4,Metropolitan/Urban,0,23349,57781,27745,30036,28865,26397,16.7,32.3,34.5,16.5,12384,39104,58,9.970432511,24,4.7,13
1,115,Alabama,St. Clair County,88690,1115,33.719021,-86.310295,26908,12.3,1,6,18943,0.218,3,Metropolitan,20,15,17.04178,5868:01:00,32.9,Metropolitan/Urban,0,35381,88690,44027,44663,77839,8384,15.2,36,32.3,16.5,10432,57284,74,8.407275702,18,3.9,12
1,117,Alabama,Shelby County,215707,1117,33.268799,-86.662323,61075,9.6,1,32,41610,0.199,1,Metropolitan,17,180,85.46116,1170:01:00,35.6,Metropolitan/Urban,0,86313,215707,104270,111437,178681,28171,7.8,20.3,29.7,42.1,16916,75663,234,11.10995053,15,3.7,9
1,119,Alabama,Sumter County,12691,1119,32.591175,-88.199165,4066,18.7,1,0,3005,0.23,7,Rural and Small towns,23,7,53.68098,1863:01:00,43.1,"Low comuting micropolitan, Rural and Small towns",1,3742,12691,5802,6889,3205,9111,15.8,37.8,24.6,21.8,4076,27859,16,12.26993865,32,5.7,20
1,121,Alabama,Talladega County,79828,1121,33.378231,-86.168861,25662,14.3,2,14,18842,0.233,4,Micropolitan,21,25,31.20982,3204:01:00,40.7,Metropolitan/Urban,1,30611,79828,38580,41248,51346,26208,19,34.9,31.8,14.3,14825,41630,96,11.98456987,24,4.8,16
1,123,Alabama,Tallapoosa County,40497,1123,32.866982,-85.798332,14910,13.3,2,6,11006,0.27,6,Micropolitan,21,17,41.74135,2396:01:00,34.5,"Low comuting micropolitan, Rural and Small towns",1,14146,40497,19632,20865,28523,10994,19.5,32.9,29.2,18.3,7839,42205,61,14.97777887,24,4.9,16
1,125,Alabama,Tuscaloosa County,208911,1125,33.287262,-87.525566,51654,12,1,84,36426,0.178,1,Metropolitan,20,150,72.7795,1374:01:00,34.1,Metropolitan/Urban,0,79253,208911,100589,108322,134982,67003,11.6,29.9,28.3,30.3,33330,52557,237,11.49916061,21,4.5,13
1,127,Alabama,Walker County,63711,1127,33.802704,-87.30027,21310,12.2,1,12,16386,0.252,3,Metropolitan,20,30,46.17729,2166:01:00,38,Metropolitan/Urban,0,23346,63711,31040,32671,57950,3932,19.1,37.1,32.2,11.6,11231,45434,93,14.3149599,22,4.7,15
1,129,Alabama,Washington County,16378,1129,31.409279,-88.206902,5535,14.2,1,0,4103,0.245,3,Metropolitan,21,2,11.93602,8378:01:00,40.4,Metropolitan/Urban,0,5894,16378,8055,8323,10838,3850,19.6,43.2,26.1,11.1,2846,44424,29,17.30723323,23,4.7,17
1,131,Alabama,Wilcox County,10627,1131,31.987732,-87.308914,3527,17.1,1,0,2751,0.252,10,Rural and Small towns,24,4,36.40998,2747:01:00,44.4,"Low comuting micropolitan, Rural and Small towns",1,3592,10627,5056,5571,2915,7575,23.1,40.3,24.1,12.5,3504,25385,10,9.102494083,30,5.7,20
1,133,Alabama,Winston County,23660,1133,34.150307,-87.37326,8631,17,1,4,6575,0.274,7,Rural and Small towns,23,12,50.40958,1984:01:00,38.2,"Low comuting micropolitan, Rural and Small towns",1,8431,23660,11655,12005,22757,207,21.9,37.4,27.3,13.5,4338,41156,28,11.76223483,22,4.9,17
4,1,Arizona,Apache County,71818,4001,35.39465,-109.48923,20243,15.4,4,0,14107,0.197,8,Rural and Small towns,21.55277574,24,32.82635,3046:01:00,34.4,"Low comuting micropolitan, Rural and Small towns",1,25245,71818,35310,36508,16069,410,20.4,33.1,34.8,11.7,26435,33652,26,3.556187767,26,5.6,15.7
4,3,Arizona,Cochise County,126770,4003,31.879347,-109.75161,45083,8.4,4,12,35231,0.278,4,Micropolitan,15.93978864,64,50.88654,1965:01:00,26.9,Metropolitan/Urban,1,43086,126770,64380,62390,111195,5852,12.8,23.5,40.7,23,18273,49164,111,8.825634094,17,4.1,10.5
4,5,Arizona,Coconino County,142854,4005,35.838833,-111.77072,34247,7.7,3,41,23195,0.167,4,Micropolitan,16.35938032,117,83.0329,1204:01:00,23.7,Metropolitan/Urban,1,50494,142854,70580,72274,93812,2089,10.4,21.4,32.6,35.6,20964,60187,138,9.793624209,16,4.2,7.7
4,7,Arizona,Gila County,53889,4007,33.801899,-110.81328,24023,12,3,8,18752,0.353,5,Micropolitan,18.14261957,23,42.9457,2329:01:00,31.1,Metropolitan/Urban,1,15598,53889,26644,27245,42312,451,14.7,28.6,38.2,18.5,10804,43585,49,9.149301665,21,5.1,13
4,9,Arizona,Graham County,38072,4009,32.931667,-109.88821,9262,9.6,1,0,6933,0.184,4,Micropolitan,17.91420647,20,53.1929,1880:01:00,34.8,Metropolitan/Urban,1,14542,38072,20283,17789,31115,680,14.4,29.9,40.5,15.3,7118,50157,18,4.787361366,21,4.4,11.1
4,11,Arizona,Greenlee County,9483,4011,33.214989,-109.24052,2311,11.3,0,0,1631,0.174,8,Rural and Small towns,15.30389075,4,41.61032,2403:01:00,29.7,"Low comuting micropolitan, Rural and Small towns",1,3745,9483,4871,4612,8550,199,11,36.2,40.9,11.9,985,65818,6,6.241547904,19,4.1,11.4
4,12,Arizona,La Paz County,21098,4012,33.728542,-113.981,10924,9.5,2,3,9183,0.448,8,Rural and Small towns,15.49751216,8,39.37589,2540:01:00,28.6,"Low comuting micropolitan, Rural and Small towns",1,5428,21098,10820,10278,16143,256,22.7,33,32,12.4,4921,37350,10,4.921986514,22,4.7,14.6
4,13,Arizona,Maricopa County,4410824,4013,33.348358,-112.49181,1179249,8.2,34,1004,808534,0.195,1,Metropolitan,13.74925703,2960,69.76201,1433:01:00,26.6,Metropolitan/Urban,0,1770551,4410824,2181718,2229106,3663379,275869,12.6,22.6,32.8,32,535183,65234,2206,5.19915522,15,3.6,9.1
4,15,Arizona,Mohave County,209550,4015,35.704716,-113.75779,97777,10.1,4,80,73559,0.359,4,Micropolitan,20.02779048,94,45.79803,2184:01:00,31.9,Metropolitan/Urban,1,63037,209550,105979,103571,192331,2709,14.7,34.8,37.6,12.9,34411,45129,120,5.846557109,21,4.9,13.4
4,17,Arizona,Navajo County,110445,4017,35.399773,-110.3219,34565,13.6,4,12,24267,0.225,7,Rural and Small towns,21.49919413,63,57.25919,1746:01:00,33,"Low comuting micropolitan, Rural and Small towns",1,37250,110445,55281,55164,55688,1114,17.2,30.1,36.9,15.8,30876,40650,76,6.907458237,24,5.8,14.3
4,19,Arizona,Pima County,1039073,4019,32.097134,-111.789,334669,7.2,9,296,245814,0.244,1,Metropolitan,13.89351317,829,81.57795,1226:01:00,25.1,Metropolitan/Urban,0,365360,1039073,511456,527617,882105,43252,11.7,22.5,34,31.9,164927,53395,631,6.209370935,16,3.9,8.7
4,21,Arizona,Pinal County,447138,4021,32.905254,-111.34495,144214,11.3,4,22,100086,0.247,2,Metropolitan,15.0965481,65,15.53018,6439:01:00,33,Metropolitan/Urban,0,167006,447138,232917,214221,370360,23222,14.6,29.7,36.8,19,54399,58848,148,3.536101687,20,4.5,12.4
4,23,Arizona,Santa Cruz County,46511,4023,31.525089,-110.84791,14133,6.5,1,0,10530,0.227,5,Micropolitan,15.60468406,20,43.49244,2299:01:00,23.3,Metropolitan/Urban,1,15544,46511,22473,24038,44513,435,24.4,27.2,27.4,21,11287,40545,26,5.654017614,25,4.6,9.2
4,25,Arizona,Yavapai County,231993,4025,34.599339,-112.55386,113224,7.2,2,39,85127,0.385,3,Metropolitan,15.25279399,139,61.62386,1623:01:00,23.8,Metropolitan/Urban,0,65994,231993,113321,118672,216777,2030,9.7,25.7,39.4,25.2,30060,48758,206,9.132743991,14,3.7,10.4
4,27,Arizona,Yuma County,212128,4027,32.768955,-113.90667,60603,12.9,1,42,45739,0.224,2,Metropolitan,14.89587161,84,40.84987,2448:01:00,33.1,Metropolitan/Urban,0,74186,212128,109306,102822,193457,5712,27.9,25.9,31.4,14.8,39648,44116,87,4.230879585,26,4.9,13.7
5,1,Arkansas,Arkansas County,17769,5001,34.291451,-91.372772,6030,17.3,2,0,4693,0.256,8,Rural and Small towns,19.46592114,9,49.41254,2024:01:00,33,"Low comuting micropolitan, Rural and Small towns",1,6327,17769,8593,9176,12810,4420,17,38.3,29.2,15.5,3120,43887,33,18.11793126,24,4.7,15
5,3,Arkansas,Ashley County,20046,5003,33.191536,-91.769844,6849,12.6,1,6,5094,0.245,8,Rural and Small towns,20.11461134,9,43.91958,2277:01:00,40.1,"Low comuting micropolitan, Rural and Small towns",1,7105,20046,9771,10275,14553,4994,17.7,39.9,29.2,13.2,3876,41127,35,17.07983603,23,4.8,16
5,5,Arkansas,Baxter County,41619,5005,36.287846,-92.33783,19404,13.1,2,17,15979,0.389,5,Micropolitan,17.95878973,30,73.06025,1369:01:00,35.4,Metropolitan/Urban,1,12406,41619,20096,21523,40200,166,11.8,35,34.8,18.3,6216,39686,45,10.95903755,20,4.7,17
5,7,Arkansas,Benton County,272608,5007,36.336445,-94.256805,65884,8.6,3,30,44616,0.177,1,Metropolitan,17.57684087,153,59.23551,1688:01:00,31.9,Metropolitan/Urban,0,113056,272608,135582,137026,241735,5528,11.9,29.1,26.5,32.4,23290,68978,216,8.36266072,20,4.4,10
5,9,Arkansas,Boone County,37480,5009,36.308449,-93.09375,12832,12.2,1,24,9809,0.264,5,Micropolitan,19.60301011,27,72.3783,1382:01:00,36.6,Metropolitan/Urban,1,13333,37480,18443,19037,35930,160,13,33.8,37.2,16,5472,44482,46,12.33111731,20,4.6,14
5,11,Arkansas,Bradley County,10897,5011,33.46756,-92.159805,3537,14,1,0,2825,0.257,7,Rural and Small towns,22.55589448,6,54.5653,1833:01:00,40.3,"Low comuting micropolitan, Rural and Small towns",1,3983,10897,5306,5591,7488,3015,18,41.6,25.1,15.2,2329,37729,18,16.36958894,29,5.3,15
5,13,Arkansas,Calhoun County,5277,5013,33.555988,-92.499741,1974,14.6,0,0,1436,0.276,8,Rural and Small towns,21.49731607,2,38.88025,2572:01:00,34.9,"Low comuting micropolitan, Rural and Small towns",1,1899,5277,2662,2615,3994,1127,17.3,43.6,27,12.1,800,44969,8,15.55209953,24,5.0,15
5,15,Arkansas,Carroll County,28223,5015,36.340385,-93.542702,10712,6.3,2,0,7997,0.288,9,Rural and Small towns,18.68254705,16,57.87456,1728:01:00,32.4,"Low comuting micropolitan, Rural and Small towns",1,9325,28223,14047,14176,26272,228,14.2,34.6,30.8,20.4,4499,45023,39,14.10692324,22,4.8,13
5,17,Arkansas,Chicot County,10438,5017,33.264591,-91.295395,3729,7.7,1,0,2835,0.258,8,Rural and Small towns,22.97519922,12,109.6391,912:01:00,41.4,"Low comuting micropolitan, Rural and Small towns",1,3513,10438,5272,5166,4519,5669,19.3,39.2,26.7,14.7,3039,31787,13,11.87756967,29,5.4,14
5,19,Arkansas,Clark County,22061,5019,34.046135,-93.17485,6240,14,1,0,5000,0.222,5,Micropolitan,20.5630671,10,44.13647,2266:01:00,32.8,Metropolitan/Urban,1,6886,22061,10452,11609,16013,5399,10.8,30.5,31,27.6,3838,45408,41,18.09595269,23,4.9,13
5,21,Arkansas,Clay County,14847,5021,36.368263,-90.414818,5245,12.9,1,0,4125,0.272,7,Rural and Small towns,21.21881733,3,20.10724,4973:01:00,38.4,"Low comuting micropolitan, Rural and Small towns",1,5255,14847,7255,7592,14411,114,19.3,41.2,27.8,11.6,3035,37687,24,16.08579089,23,4.9,15
5,23,Arkansas,Cleburne County,24965,5023,35.538651,-92.026398,10584,8.4,1,0,8437,0.333,8,Rural and Small towns,17.99265373,15,59.37302,1684:01:00,34.3,"Low comuting micropolitan, Rural and Small towns",1,8093,24965,12277,12688,24136,108,15.3,40.7,29.1,14.9,3573,44902,40,15.83280557,18,4.2,14
5,25,Arkansas,Cleveland County,8018,5025,33.897232,-92.185371,2855,14.6,0,0,2195,0.263,2,Metropolitan,18.79179507,1,12.13445,8241:01:00,35.2,Metropolitan/Urban,0,2822,8018,3978,4040,6915,929,11.4,47.2,25.2,16.2,1232,47600,7,8.494114792,21,4.6,15
5,27,Arkansas,Columbia County,23537,5027,33.212307,-93.226425,6991,14.9,1,6,5481,0.228,5,Micropolitan,21.41267237,14,58.57496,1707:01:00,33.6,Metropolitan/Urban,1,7587,23537,11352,12185,14387,8453,15,39.9,24.5,20.6,4799,40909,42,17.57248651,24,5.1,14
5,29,Arkansas,Conway County,20891,5029,35.262054,-92.705063,7151,16.3,1,0,5270,0.252,7,Rural and Small towns,21.01056134,13,62.09104,1611:01:00,36.9,"Low comuting micropolitan, Rural and Small towns",1,7585,20891,10260,10631,17708,2391,14.1,43.4,26.5,16,3693,44565,34,16.23919377,22,4.8,16
5,31,Arkansas,Craighead County,108558,5031,35.830181,-90.632355,26931,13.6,2,66,19242,0.185,2,Metropolitan,20.96940424,124,117.16351,854:01:00,36.6,Metropolitan/Urban,0,43095,108558,52730,55828,87000,17630,10.9,34.1,28.7,26.3,18768,45615,92,8.692776492,21,4.5,13
5,33,Arkansas,Crawford County,63406,5033,35.589287,-94.244682,18961,13.2,1,8,13589,0.219,1,Metropolitan,20.32802496,26,41.75567,2395:01:00,35.8,Metropolitan/Urban,0,23943,63406,31258,32148,57609,1018,14.8,37.4,32.4,15.3,10027,47363,54,8.672330448,21,4.6,13
5,35,Arkansas,Crittenden County,48342,5035,35.212475,-90.308395,12916,18.6,1,0,9487,0.193,1,Metropolitan,24.00204619,18,36.55936,2735:01:00,41.1,Metropolitan/Urban,0,18036,48342,23011,25331,21006,26118,17.6,35,29.4,18,9056,42606,44,8.936732,25,5.0,16
5,37,Arkansas,Cross County,16676,5037,35.296314,-90.771858,5410,14.8,1,0,4020,0.234,7,Rural and Small towns,21.47414796,7,41.08705,2434:01:00,36.7,"Low comuting micropolitan, Rural and Small towns",1,6026,16676,8044,8632,12415,3817,17.2,41.5,25.8,15.4,2940,41214,27,15.84786054,23,4.9,14
5,39,Arkansas,Dallas County,7182,5039,33.970428,-92.651672,2783,5.7,1,0,2206,0.291,7,Rural and Small towns,19.07861276,3,40.16602,2490:01:00,40.2,"Low comuting micropolitan, Rural and Small towns",1,2361,7182,3549,3633,4020,2969,16.4,43.4,26.6,13.7,1442,37259,18,24.09961173,24,4.8,15
5,41,Arkansas,Desha County,11512,5041,33.830109,-91.255013,3861,11.5,2,0,3044,0.252,8,Rural and Small towns,25.38666552,7,58.9424,1697:01:00,38.8,"Low comuting micropolitan, Rural and Small towns",1,3837,11512,5437,6075,5681,5531,21.2,44,22.4,12.4,2780,36132,21,17.68272146,30,5.6,16
5,43,Arkansas,Drew County,18328,5043,33.590351,-91.717781,5526,18,1,5,3890,0.209,8,Rural and Small towns,21.39009933,12,64.33971,1554:01:00,38.2,"Low comuting micropolitan, Rural and Small towns",1,6347,18328,8955,9373,12733,5136,14.9,35.4,29.1,20.6,3391,42494,23,12.33177846,24,5.1,15
5,45,Arkansas,Faulkner County,124806,5045,35.14719,-92.337173,29239,9.8,2,25,19658,0.162,1,Metropolitan,18.31142552,61,49.90714,2004:01:00,35.6,Metropolitan/Urban,0,48115,124806,60992,63814,104282,15190,8.7,30.5,30.7,30,18571,53882,109,8.917833212,19,4.6,11
5,47,Arkansas,Franklin County,17810,5047,35.512028,-93.892998,5930,11.1,1,0,4640,0.261,4,Micropolitan,20.60018709,6,34.04062,2938:01:00,32.2,Metropolitan/Urban,1,6367,17810,8908,8902,16839,172,17.4,40.1,30.7,11.8,3202,43696,22,12.48156133,21,4.8,14
5,49,Arkansas,Fulton County,12269,5049,36.381771,-91.817291,5103,10.4,1,0,4099,0.339,10,Rural and Small towns,18.76575381,7,57.74148,1732:01:00,31.2,"Low comuting micropolitan, Rural and Small towns",1,3815,12269,6021,6248,11830,82,15.4,37.2,35.6,11.8,2481,35630,11,9.073661635,22,4.8,16
5,51,Arkansas,Garland County,99154,5051,34.57692,-93.149216,37964,12.8,3,41,28731,0.293,2,Metropolitan,18.79290382,86,88.22594,1133:01:00,31.2,Metropolitan/Urban,0,34117,99154,47660,51494,86303,8666,11.6,31.5,36.7,20.2,19844,43610,112,11.48988992,21,4.9,13
5,53,Arkansas,Grant County,18188,5053,34.29018,-92.423203,5792,14.7,0,0,4063,0.225,3,Metropolitan,19.42911473,2,11.06072,9041:01:00,39,Metropolitan/Urban,0,6951,18188,8985,9203,17220,508,8.5,44.2,29,18.3,2353,52050,23,12.71983188,19,4.4,14
5,55,Arkansas,Greene County,45325,5055,36.117355,-90.558327,12669,13.2,1,8,9006,0.204,4,Micropolitan,20.5660352,26,58.29858,1715:01:00,34.6,Metropolitan/Urban,1,17824,45325,22289,23036,43150,830,12.7,44.2,27.2,15.9,7361,46512,48,10.76281448,21,4.6,16
5,57,Arkansas,Hempstead County,21741,5057,33.733257,-93.66935,6928,16.4,1,8,5273,0.238,8,Rural and Small towns,22.26998583,6,27.305,3662:01:00,36,"Low comuting micropolitan, Rural and Small towns",1,7460,21741,10482,11259,14370,6569,19,36.9,28.9,15.1,4424,38682,26,11.83216529,28,5.4,15
5,59,Arkansas,Hot Spring County,33701,5059,34.317093,-92.953964,11084,15.7,1,6,8417,0.251,3,Metropolitan,19.07167204,7,20.97441,4768:01:00,35,Metropolitan/Urban,0,13014,33701,17643,16058,28803,3812,14.6,39.6,31.1,14.7,5844,47205,42,12.58464673,20,4.7,13
5,61,Arkansas,Howard County,13341,5061,34.090073,-93.993484,4112,10.9,1,0,3157,0.234,8,Rural and Small towns,22.66432476,6,44.85311,2230:01:00,36.9,"Low comuting micropolitan, Rural and Small towns",1,4725,13341,6417,6924,9992,2803,17.1,37.3,30.8,14.7,2271,40199,23,17.19369066,27,5.3,16
5,63,Arkansas,Independence County,37678,5063,35.742428,-91.570015,11537,12.3,1,12,8706,0.235,5,Micropolitan,20.82882832,32,86.09557,1162:01:00,34.3,Metropolitan/Urban,1,13728,37678,18371,19307,35447,881,14.2,35.8,31,18.9,5302,45596,52,13.99052949,22,4.9,13
5,65,Arkansas,Izard County,13593,5065,36.096039,-91.908478,5560,9.9,0,0,4226,0.313,10,Rural and Small towns,21.37734824,5,37.22177,2687:01:00,34.6,"Low comuting micropolitan, Rural and Small towns",1,4661,13593,7050,6543,12915,281,14.9,37.8,33.5,13.8,2358,37828,22,16.37757761,22,4.8,16
5,67,Arkansas,Jackson County,16811,5067,35.59803,-91.214943,5323,22.8,0,0,4039,0.232,8,Rural and Small towns,23.84647671,7,40.64805,2460:01:00,36.9,"Low comuting micropolitan, Rural and Small towns",1,6798,16811,8348,8463,13274,2979,21.1,41.1,27.7,10.2,3732,36573,21,12.1944138,25,5.1,14
5,69,Arkansas,Jefferson County,68114,5069,34.26767,-91.926201,21184,14,1,34,15529,0.218,2,Metropolitan,22.36096749,44,62.84278,1591:01:00,41.8,Metropolitan/Urban,0,24949,68114,33662,34452,27331,38912,14,38.5,29.7,17.8,13900,38596,103,14.71092322,27,4.8,18
5,71,Arkansas,Johnson County,26742,5071,35.567593,-93.460365,7863,11.5,1,8,5619,0.215,8,Rural and Small towns,21.73380256,14,53.48411,1870:01:00,36.1,"Low comuting micropolitan, Rural and Small towns",1,9748,26742,13264,13478,24533,613,20.6,41.2,22.3,15.8,5761,39381,24,9.168704157,25,5.1,13
5,73,Arkansas,Lafayette County,6682,5073,33.241169,-93.606773,2694,26.6,0,0,2097,0.297,6,Micropolitan,20.68808551,3,43.81481,2282:01:00,40.8,"Low comuting micropolitan, Rural and Small towns",1,2260,6682,3283,3399,4091,2424,18.3,41.3,24,16.5,1498,35527,7,10.22345553,26,5.1,17
5,75,Arkansas,Lawrence County,16434,5075,36.041882,-91.108673,5462,7.5,1,0,4447,0.265,8,Rural and Small towns,21.26112284,6,35.853,2789:01:00,32.1,"Low comuting micropolitan, Rural and Small towns",1,5820,16434,8112,8322,15845,198,14.5,40.4,30.1,15,2776,40308,20,11.9510009,22,4.9,14
5,77,Arkansas,Lee County,8985,5077,34.784988,-90.783836,2924,14.9,0,0,2289,0.238,8,Rural and Small towns,25.99112225,2,21.48228,4655:01:00,39.1,"Low comuting micropolitan, Rural and Small towns",1,3708,8985,5049,3936,3884,4868,27,40.8,23.3,8.9,3098,28080,14,15.03759399,29,5.5,14
5,79,Arkansas,Lincoln County,13383,5079,33.953171,-91.740028,3628,15,0,0,2882,0.208,4,Micropolitan,22.82574297,2,14.59321,6853:01:00,34.9,Metropolitan/Urban,1,6158,13383,8273,5110,9009,4074,18.7,50.3,22.1,8.9,2647,44951,12,8.755928493,24,4.9,14
5,81,Arkansas,Little River County,12326,5081,33.703758,-94.234688,4288,18.6,1,0,3272,0.262,7,Rural and Small towns,20.49052843,3,24.09445,4150:01:00,37.4,"Low comuting micropolitan, Rural and Small towns",1,4389,12326,5936,6390,9303,2445,11.8,42.7,34,11.4,1942,43559,19,15.25981849,23,4.9,15
5,83,Arkansas,Logan County,21737,5083,35.214134,-93.719513,7425,15.8,2,0,5494,0.252,6,Micropolitan,20.14317103,5,22.9442,4358:01:00,38.3,"Low comuting micropolitan, Rural and Small towns",1,7924,21737,10852,10885,20211,337,14.9,45,28,12.1,3950,41471,28,12.84875184,21,4.8,15
5,85,Arkansas,Lonoke County,73657,5085,34.753922,-91.887421,18694,12.1,0,0,12771,0.178,2,Metropolitan,18.56997472,12,16.61406,6019:01:00,40.6,Metropolitan/Urban,0,29990,73657,36302,37355,66146,4675,11.3,35.1,33.3,20.3,8651,56651,65,8.999280058,18,4.2,14
5,87,Arkansas,Madison County,16481,5087,36.010384,-93.72525,5508,10.1,0,0,3897,0.245,2,Metropolitan,21.70086116,3,18.666,5357:01:00,35.6,Metropolitan/Urban,0,5850,16481,8229,8252,15535,149,20.3,45.6,21.6,12.5,3002,42674,12,7.466401195,23,5.0,14
5,89,Arkansas,Marion County,16722,5089,36.268444,-92.684517,7756,13.2,0,0,6057,0.37,8,Rural and Small towns,19.96041613,2,12.25115,8163:01:00,33.6,"Low comuting micropolitan, Rural and Small towns",1,4935,16722,8209,8513,15989,94,13.1,36.8,32.8,17.2,3082,36581,16,9.800918836,21,4.9,16
5,91,Arkansas,Miller County,43592,5091,33.314034,-93.892853,13027,10.8,0,0,9791,0.224,1,Metropolitan,21.40136432,28,63.94592,1564:01:00,37,Metropolitan/Urban,0,16744,43592,21411,22181,31106,11002,14,35.9,33.5,16.6,9228,42162,55,12.56080572,21,4.8,12
5,93,Arkansas,Mississippi County,41239,5093,35.762714,-90.051941,11502,16.1,2,5,8720,0.2,6,Micropolitan,22.35157425,17,39.68717,2520:01:00,42.1,"Low comuting micropolitan, Rural and Small towns",1,15303,41239,20077,21162,25478,14724,19.3,38.6,29.3,12.8,10325,36718,55,12.83996732,27,5.2,15
5,95,Arkansas,Monroe County,6900,5095,34.681595,-91.205406,2713,14.2,0,0,2254,0.304,8,Rural and Small towns,22.44513828,4,55.79579,1792:01:00,36.7,"Low comuting micropolitan, Rural and Small towns",1,2251,6900,3209,3691,3887,2762,22.9,43,23.6,10.5,1769,32922,9,12.55405217,28,5.4,17
5,97,Arkansas,Montgomery County,8924,5097,34.537048,-93.658241,3877,14.7,0,0,3095,0.342,10,Rural and Small towns,19.3663989,2,22.52506,4440:01:00,34.6,"Low comuting micropolitan, Rural and Small towns",1,2805,8924,4414,4510,8374,72,21.8,36.5,30.9,10.8,1649,38318,6,6.757517739,21,4.7,17
5,99,Arkansas,Nevada County,8326,5099,33.663403,-93.306328,2955,11.6,0,0,2133,0.25,8,Rural and Small towns,24.37738862,2,23.81519,4199:01:00,35,"Low comuting micropolitan, Rural and Small towns",1,2930,8326,4126,4200,5528,2578,13.2,43.8,27.6,15.4,1738,37626,11,13.09835675,28,5.5,15
5,101,Arkansas,Newton County,7805,5101,35.919476,-93.216133,3308,7.8,0,0,2612,0.331,8,Rural and Small towns,20.78268974,1,12.60081,7936:01:00,31.8,"Low comuting micropolitan, Rural and Small towns",1,2491,7805,3954,3851,7438,45,17.4,40.8,25.6,16.2,1340,36078,5,6.300403226,22,4.9,15
5,103,Arkansas,Ouachita County,23606,5103,33.588398,-92.87796,8536,12.4,1,8,6183,0.254,5,Micropolitan,20.84954316,13,53.94639,1854:01:00,35.6,Metropolitan/Urban,1,8066,23606,11196,12410,13380,9487,14.4,41.6,28,16,5410,37624,48,19.91866545,23,5.1,15
5,105,Arkansas,Perry County,10352,5105,34.945915,-92.943726,3571,12.5,0,0,2645,0.256,2,Metropolitan,19.88481937,1,9.86972,10132:1,35.4,Metropolitan/Urban,0,3689,10352,5113,5239,9789,210,16.6,40.7,30.8,11.9,1502,45342,11,10.85669167,20,4.7,14
5,107,Arkansas,Phillips County,18029,5107,34.432686,-90.848,6058,16.3,1,6,4632,0.237,4,Micropolitan,26.45763925,7,36.89065,2711:01:00,44.7,Metropolitan/Urban,1,5776,18029,8476,9553,6446,11186,21.6,30.1,34.3,14,6301,29945,28,14.75625824,31,5.9,16
5,109,Arkansas,Pike County,10673,5109,34.162502,-93.65789,3684,12.1,0,0,3014,0.277,10,Rural and Small towns,20.47545354,4,36.92762,2708:01:00,34.9,"Low comuting micropolitan, Rural and Small towns",1,3865,10673,5336,5337,9891,364,15.2,38.9,31.2,14.7,1856,41534,11,10.15509601,22,4.9,14
5,111,Arkansas,Poinsett County,23974,5111,35.574337,-90.662689,7422,19.1,0,0,5793,0.24,3,Metropolitan,23.048709,4,16.65071,6006:01:00,36.6,Metropolitan/Urban,0,8883,23974,11646,12328,21362,2020,19.4,44.3,26.3,10.1,5592,37370,27,11.23922907,24,5.1,16
5,113,Arkansas,Polk County,20049,5113,34.482548,-94.227287,7488,10.3,1,6,5939,0.294,8,Rural and Small towns,21.26360108,14,69.39969,1441:01:00,34.5,"Low comuting micropolitan, Rural and Small towns",1,6547,20049,9767,10282,18778,127,15.4,37.4,34,13.3,3962,39048,35,17.34992317,24,5.1,14
5,115,Arkansas,Pope County,64000,5115,35.448715,-93.03212,17867,10.1,1,11,12757,0.201,5,Micropolitan,20.12038929,40,62.71657,1594:01:00,35.8,Metropolitan/Urban,1,23388,64000,31721,32279,58973,2155,15.2,35.5,27.4,22,9647,45788,86,13.48406215,22,4.8,12
5,117,Arkansas,Prairie County,8074,5117,34.836243,-91.55162,3134,11.8,0,0,2425,0.292,7,Rural and Small towns,20.42690294,,41.84155729,,38,"Low comuting micropolitan, Rural and Small towns",1,2746,8074,4063,4011,6970,949,17.8,40,27.1,15.1,1254,43245,13,15.75566598,23,4.9,15
5,119,Arkansas,Pulaski County,392680,5119,34.770542,-92.313553,112103,11,8,209,79133,0.201,1,Metropolitan,18.91926496,457,116.21106,861:01:00,32.7,Metropolitan/Urban,0,155596,392680,187731,204949,225615,147401,9.6,26.2,30.2,34.1,64312,49957,629,15.99491418,19,4.4,13
5,121,Arkansas,Randolph County,17948,5121,36.341572,-91.024559,5913,16.4,1,2,4836,0.276,8,Rural and Small towns,19.74311651,10,57.31316,1745:01:00,35.8,"Low comuting micropolitan, Rural and Small towns",1,6478,17948,8874,9074,17047,183,17.3,35.6,33.1,14,3050,37799,17,9.743237047,21,4.8,16
5,123,Arkansas,St. Francis County,25439,5123,35.022018,-90.748283,7404,17.1,1,6,5393,0.202,5,Micropolitan,24.60936302,13,49.6259,2015:01:00,39.2,Metropolitan/Urban,1,10623,25439,14023,11416,11188,13468,19.4,38.8,31.2,10.6,7586,33257,31,11.83386777,27,5.0,18
5,125,Arkansas,Saline County,121421,5125,34.649162,-92.675835,36780,11,1,16,26545,0.228,2,Metropolitan,16.6181451,51,42.96437,2328:01:00,46.9,Metropolitan/Urban,0,47644,121421,59489,61932,107297,9788,9.6,31.5,32.9,26.1,11695,63677,93,7.834679831,18,4.0,15
5,127,Arkansas,Scott County,10319,5127,34.855888,-94.063217,3605,15.6,1,0,2606,0.246,6,Micropolitan,20.36799153,2,19.46093,5139:01:00,34.7,"Low comuting micropolitan, Rural and Small towns",1,3595,10319,5236,5083,9389,70,21.1,43,26.8,9.1,2054,35826,15,14.59569913,23,5.0,16
5,129,Arkansas,Searcy County,7958,5129,35.910938,-92.699364,3234,13,0,0,2684,0.339,8,Rural and Small towns,20.03893426,2,25.10355,3984:01:00,37.6,"Low comuting micropolitan, Rural and Small towns",1,2576,7958,3988,3970,7569,43,15.5,45.1,26.9,12.5,1912,31659,5,6.275888038,21,4.8,14
5,131,Arkansas,Sebastian County,127753,5131,35.196056,-94.271629,36850,11.1,2,69,26807,0.21,1,Metropolitan,21.8242171,163,127.55002,784:01:00,35.2,Metropolitan/Urban,0,48989,127753,62418,65335,104707,8838,16.8,32,31.4,19.7,19527,46843,143,11.18997128,22,4.8,13
5,133,Arkansas,Sevier County,17139,5133,33.997803,-94.242485,4439,13.2,0,0,3266,0.19,8,Rural and Small towns,20.94763244,8,47.30928,2114:01:00,33.6,"Low comuting micropolitan, Rural and Small towns",1,6274,17139,8622,8517,15104,711,25.7,36.1,26.7,11.5,3402,44100,18,10.644589,27,5.2,14
5,135,Arkansas,Sharp County,17366,5135,36.162582,-91.478195,7135,16.4,0,0,5487,0.322,8,Rural and Small towns,21.65675547,5,29.14262,3431:01:00,35,"Low comuting micropolitan, Rural and Small towns",1,5483,17366,8570,8796,16576,159,16.4,42,30.3,11.3,3541,36032,30,17.4855744,24,5.2,17
5,137,Arkansas,Stone County,12457,5137,35.862518,-92.156837,5481,17.8,1,0,4150,0.334,10,Rural and Small towns,20.97192663,6,47.85071,2090:01:00,36.4,"Low comuting micropolitan, Rural and Small towns",1,3810,12457,6135,6322,11994,54,20.4,36.3,30.5,12.8,2497,34009,17,13.55769998,24,5.3,17
5,139,Arkansas,Union County,39126,5139,33.168869,-92.597473,12592,11.7,1,16,9680,0.242,5,Micropolitan,19.98562326,26,65.18415,1534:01:00,40.7,Metropolitan/Urban,1,14087,39126,19038,20088,25071,12869,15.2,35.2,28.7,20.8,7000,45335,95,23.81728383,24,4.8,14
5,141,Arkansas,Van Buren County,16603,5141,35.580959,-92.512947,6946,12.5,1,0,5519,0.329,6,Micropolitan,20.16602666,2,12.0279,8314:01:00,38,"Low comuting micropolitan, Rural and Small towns",1,5286,16603,8255,8348,15970,106,14.2,43.9,27.8,14.1,2685,40486,30,18.04185711,21,4.9,14
5,143,Arkansas,Washington County,236961,5143,35.976845,-94.21801,51636,9.3,3,61,34691,0.155,1,Metropolitan,20.6897463,187,81.99992,1220:01:00,31,Metropolitan/Urban,0,93010,236961,118335,118626,205293,8708,15,26.3,25.8,32.8,34741,50893,207,9.07699661,20,4.1,10
5,145,Arkansas,White County,78727,5145,35.256886,-91.749084,22764,12.3,1,13,16257,0.207,4,Micropolitan,19.40550702,39,49.20329,2032:01:00,35.6,Metropolitan/Urban,1,28800,78727,38321,40406,72297,3599,14.6,38.4,25.6,21.4,12505,44811,89,11.22844202,22,4.6,13
5,147,Arkansas,Woodruff County,6490,5147,35.189026,-91.24395,2437,24.7,0,0,1975,0.292,8,Rural and Small towns,21.87379586,3,45.17392,2214:01:00,37.8,"Low comuting micropolitan, Rural and Small towns",1,2156,6490,3121,3369,4600,1705,20,42.5,25.5,12,1509,34306,14,21.08116248,25,5.1,16
5,149,Arkansas,Yell County,21535,5149,35.002922,-93.411713,6761,12.3,2,0,4891,0.226,5,Micropolitan,20.77389762,12,55.67929,1796:01:00,40.3,Metropolitan/Urban,1,7756,21535,10811,10724,20259,422,19.9,40.9,25.7,13.5,3453,41729,26,12.06384558,25,5.2,13
6,1,California,Alameda County,1666753,6001,37.646294,-121.89293,433692,6.7,12,282,300276,0.184,1,Metropolitan,10.67353273,1782,108.15049,925:01:00,19.1,Metropolitan/Urban,0,752534,1666753,820045,846708,828966,185930,12,17.6,24.4,46,147394,101744,1036,6.287537082,13,3.1,8
6,3,California,Alpine County,1101,6003,38.596786,-119.82236,497,4.6,0,0,429,0.357,10,Rural and Small towns,14.80225287,0,0,1071:00:00,23.3,"Low comuting micropolitan, Rural and Small towns",1,325,1101,588,513,770,1,11.1,28.7,30.2,30,190,55384,1,9.337068161,17,4.1,11
6,5,California,Amador County,39383,6005,38.445831,-120.65696,17114,10.4,1,6,12967,0.348,7,Rural and Small towns,11.04443698,22,58.85028,1699:01:00,24.2,"Low comuting micropolitan, Rural and Small towns",1,14112,39383,21425,17958,35312,1061,9.7,28.7,41.3,20.3,4130,58515,33,8.827541931,13,3.3,11
6,7,California,Butte County,231256,6007,39.667278,-121.60052,72337,8.7,4,43,53616,0.238,3,Metropolitan,14.15561774,137,60.3886,1656:01:00,25.4,Metropolitan/Urban,0,79727,231256,114342,116914,198672,4178,10.7,22.7,40,26.5,42016,50945,176,7.757951901,16,4.0,9
6,9,California,Calaveras County,45602,6009,38.205372,-120.55291,20948,8.3,1,0,15872,0.352,8,Rural and Small towns,11.74399119,22,48.70381,2053:01:00,24.5,"Low comuting micropolitan, Rural and Small towns",1,14122,45602,22697,22905,41594,448,9.6,27.6,44,18.7,5454,62984,39,8.633858006,13,3.4,11
6,11,California,Colusa County,21627,6011,39.178818,-122.23317,5694,20.1,1,0,4027,0.187,8,Rural and Small towns,12.3601661,7,32.42542,3084:01:00,27.8,"Low comuting micropolitan, Rural and Small towns",1,8033,21627,11046,10581,19721,270,30.6,23.7,30.3,15.4,2350,57249,17,7.874745229,19,3.9,9
6,13,California,Contra Costa County,1150215,6013,37.919235,-121.92896,333478,7.8,7,163,231404,0.206,1,Metropolitan,10.46856736,1167,102.80788,973:01:00,25.2,Metropolitan/Urban,0,463929,1150215,562483,587732,753341,109696,10.6,17.6,30.1,41.7,88980,101463,631,5.558849362,12,3.2,9
6,15,California,Del Norte County,27828,6015,41.742283,-123.89741,8991,8.9,1,6,6262,0.228,5,Micropolitan,15.14706413,19,68.99056,1449:01:00,24.7,Metropolitan/Urban,1,10867,27828,15188,12640,21808,984,19,31.5,35.2,14.3,5065,48518,15,5.446623094,18,4.0,9
6,17,California,El Dorado County,190678,6017,38.779659,-120.52332,72941,6.2,2,28,49939,0.27,3,Metropolitan,10.99345121,149,80.26936,1246:01:00,20.1,Metropolitan/Urban,0,66410,190678,95091,95587,169435,1996,6.9,21.2,38.2,33.7,15401,81869,121,6.518518519,11,3.4,8
6,19,California,Fresno County,994400,6019,36.757339,-119.6467,225925,10.7,7,164,157757,0.162,2,Metropolitan,14.18186937,642,65.51589,1526:01:00,28.6,Metropolitan/Urban,0,388557,994400,496016,498384,762683,57839,24.7,22.9,31.7,20.7,208627,52318,529,5.398427415,24,4.2,10
6,21,California,Glenn County,28047,6021,39.598759,-122.39384,8050,8.5,1,0,6019,0.215,7,Rural and Small towns,14.00330581,5,17.8031,5617:01:00,25.6,"Low comuting micropolitan, Rural and Small towns",1,10019,28047,14235,13812,25003,382,24.7,28.2,33.2,13.9,4271,47365,27,9.613672779,21,4.2,8
6,23,California,Humboldt County,136373,6023,40.69923,-123.87605,42491,7.9,4,32,31200,0.23,5,Micropolitan,15.27977715,91,66.59544,1502:01:00,26.7,Metropolitan/Urban,1,50457,136373,67913,68460,113693,1959,9.7,23.5,37.1,29.8,27002,49471,123,9.001361181,16,4.2,9
6,25,California,Imperial County,181827,6025,33.039307,-115.36691,42439,9,2,28,30768,0.171,2,Metropolitan,13.43298112,37,20.45521,4889:01:00,27.4,Metropolitan/Urban,0,69238,181827,93235,88592,163760,6122,31,24.5,30,14.5,37014,46633,86,4.754454537,27,4.4,8
6,27,California,Inyo County,17987,6027,36.51112,-117.4112,7178,6.9,2,4,5588,0.307,8,Rural and Small towns,11.83561833,22,121.2522,825:01:00,24.4,"Low comuting micropolitan, Rural and Small towns",1,5940,17987,9044,8943,14396,210,11.2,29.3,33.5,26.1,2172,53793,20,11.02292769,14,3.5,10
6,29,California,Kern County,896764,6029,35.343296,-118.72778,192538,9.5,10,144,130831,0.149,2,Metropolitan,16.19314053,433,48.93828,2043:01:00,30.6,Metropolitan/Urban,0,354518,896764,459690,437074,738176,56081,26.2,27.7,30,16.1,177021,51586,409,4.622576256,24,4.1,9
6,31,California,Kings County,151366,6031,36.074089,-119.81599,29873,11.1,1,22,20569,0.137,3,Metropolitan,14.54645021,59,39.38979,2539:01:00,24,Metropolitan/Urban,0,63923,151366,83196,68170,122615,10978,26.3,25.5,34.7,13.5,25481,58255,61,4.072503922,22,4.2,8
6,33,California,Lake County,64382,6033,39.101242,-122.75362,24880,9.8,2,8,19092,0.298,4,Micropolitan,15.40097745,30,46.79019,2137:01:00,23.9,Metropolitan/Urban,1,21778,64382,32140,32242,56154,1320,14.8,30.1,39.3,15.8,11689,45086,42,6.550626989,18,4.2,10
6,35,California,Lassen County,30802,6035,40.673115,-120.59351,8353,19.4,1,0,5929,0.188,5,Micropolitan,13.85607733,12,38.87269,2573:01:00,25.7,Metropolitan/Urban,1,14144,30802,19155,11647,24988,2558,17.2,33.2,37.5,12,3653,57705,15,4.859086492,15,3.7,8
6,37,California,Los Angeles County,10105518,6037,34.308285,-118.22824,2587448,8.1,76,2126,1800341,0.178,1,Metropolitan,10.60574833,7333,72.33243,1383:01:00,21.4,Metropolitan/Urban,0,4369725,10105518,4981895,5123623,7151444,906467,21.3,20.7,26.2,31.8,1409155,67986,5713,5.635281022,19,3.7,9
6,39,California,Madera County,157672,6039,37.215141,-119.76656,39459,11.6,1,10,28392,0.184,4,Micropolitan,14.2694435,68,43.9569,2275:01:00,26.2,Metropolitan/Urban,1,60002,157672,76008,81664,135594,6703,28.1,25,32.4,14.5,30201,53632,73,4.718902112,23,4.2,9
6,41,California,Marin County,259666,6041,38.071224,-122.72106,97432,3.8,3,66,72684,0.279,2,Metropolitan,9.669764224,384,147.32343,679:01:00,18.2,Metropolitan/Urban,0,93329,259666,126989,132677,221914,7321,6.8,10.9,23.5,58.8,16742,122933,217,8.325308554,11,3.0,7
6,43,California,Mariposa County,17471,6043,37.579784,-119.90733,8053,4.8,1,0,6311,0.357,10,Rural and Small towns,12.25506721,6,34.46295,2902:01:00,24.8,"Low comuting micropolitan, Rural and Small towns",1,5508,17471,8904,8567,15617,220,9.6,26.5,40.4,23.4,2569,51402,19,10.91326824,14,3.6,10
6,45,California,Mendocino County,87606,6045,39.438118,-123.39113,31965,5.8,3,14,24313,0.278,6,Micropolitan,14.09600528,80,91.29502,1095:01:00,27.1,"Low comuting micropolitan, Rural and Small towns",1,30545,87606,43403,44203,75494,951,13.1,25.8,36.5,24.7,15140,51386,78,8.901264436,17,4.1,8
6,47,California,Merced County,274765,6047,37.189224,-120.7209,58539,14.2,2,24,40383,0.151,2,Metropolitan,14.45934305,120,44.66413,2239:01:00,25.8,Metropolitan/Urban,0,104785,274765,138632,136133,225371,10929,30.6,25.8,29.6,14,56863,56169,110,4.094211529,25,4.3,9
6,49,California,Modoc County,8777,6049,41.589657,-120.72448,3783,15.4,2,0,3106,0.344,9,Rural and Small towns,13.4463523,7,79.59068,1256:01:00,23.1,"Low comuting micropolitan, Rural and Small towns",1,2755,8777,4386,4391,7751,119,14.4,32.3,37.4,15.9,1631,45227,5,5.685048323,16,3.9,11
6,51,California,Mono County,14250,6051,37.938992,-118.88724,4526,5.1,1,2,2723,0.194,8,Rural and Small towns,12.78715861,9,64.37308,1553:01:00,23.4,"Low comuting micropolitan, Rural and Small towns",1,5821,14250,7571,6679,12879,115,11.3,22.8,35.3,30.6,1312,66499,12,8.583077033,14,3.5,7
6,53,California,Monterey County,435594,6053,36.218624,-121.24134,107961,8,4,27,76257,0.176,2,Metropolitan,12.36516151,257,59.04897,1694:01:00,25.4,Metropolitan/Urban,0,170570,435594,221787,213807,360356,15215,28.7,20.4,26.4,24.5,55614,69665,224,5.146680391,22,3.8,7
6,55,California,Napa County,139417,6055,38.507359,-122.33284,45605,7.2,2,32,33686,0.239,2,Metropolitan,10.90926044,134,94.25601,1061:01:00,21.6,Metropolitan/Urban,0,53185,139417,69392,70025,116845,3436,14.9,18,32.2,34.9,11829,85624,107,7.526412785,14,3.4,8
6,57,California,Nevada County,99696,6057,39.303947,-120.76273,44594,4.1,2,10,33612,0.34,5,Micropolitan,11.800872,69,69.62172,1436:01:00,20.3,Metropolitan/Urban,1,32090,99696,48920,50776,93094,600,5.8,18.4,39.2,36.6,10171,66681,100,10.09010463,12,3.2,9
6,59,California,Orange County,3185968,6059,33.701477,-117.7646,875610,7.8,24,651,598030,0.19,1,Metropolitan,9.995160764,3072,96.83117,1033:01:00,19.5,Metropolitan/Urban,0,1319558,3185968,1572801,1613167,2278624,67789,14.9,17.1,28.1,39.9,330559,89373,1935,6.099229259,15,3.5,8
6,61,California,Placer County,393149,6061,39.061672,-120.72406,129749,5.2,3,70,92327,0.246,2,Metropolitan,9.715204336,452,118.78139,842:01:00,20.2,Metropolitan/Urban,0,147070,393149,192147,201002,331535,7374,5.4,18.2,37.8,38.6,27596,89175,281,7.38441809,11,3.1,8
6,63,California,Plumas County,18804,6063,40.003559,-120.83952,8849,7.8,3,0,6935,0.37,8,Rural and Small towns,12.32064431,15,80.52827,1242:01:00,23.3,"Low comuting micropolitan, Rural and Small towns",1,5669,18804,9360,9444,17071,191,6.1,25.2,45.2,23.5,2317,55079,30,16.10565308,14,3.6,11
6,65,California,Riverside County,2450758,6065,33.743149,-115.99335,634234,8.7,16,351,437180,0.186,1,Metropolitan,12.35872909,998,41.79683,2393:01:00,25.8,Metropolitan/Urban,0,962964,2450758,1221375,1229383,1954479,177121,18.3,26.9,33,21.8,307511,66793,972,4.070793273,19,3.8,9
6,67,California,Sacramento County,1540975,6067,38.451069,-121.34254,406075,8.9,8,396,279005,0.187,1,Metropolitan,12.53032663,1247,82.33958,1214:01:00,26.8,Metropolitan/Urban,0,639914,1540975,752972,788003,970616,167528,12.6,22.3,34.6,30.4,217138,69475,1110,7.329345113,15,3.7,9
6,69,California,San Benito County,61537,6069,36.603081,-121.06998,15455,8.4,1,8,10074,0.172,5,Micropolitan,10.91542333,19,31.97899,3127:01:00,25.1,Metropolitan/Urban,1,24491,61537,30843,30694,54070,935,20.1,24.8,35.4,19.7,5294,80063,27,4.544383479,18,3.5,8
6,71,California,San Bernardino County,2171603,6071,34.840603,-116.17747,497383,9.4,18,410,330448,0.156,2,Metropolitan,13.05438795,1225,57.24042,1747:01:00,26.2,Metropolitan/Urban,0,877740,2171603,1080950,1090653,1666544,204553,20.5,26.5,32.8,20.3,317514,63310,946,4.420362451,20,4.1,9
6,73,California,San Diego County,3343364,6073,33.034847,-116.73653,865424,6.9,15,570,604412,0.184,1,Metropolitan,11.1223271,2611,78.69794,1271:01:00,20.4,Metropolitan/Urban,0,1412804,3343364,1682449,1660915,2522987,184779,12.9,18.4,30.6,38.1,372148,78777,1933,5.826239417,13,3.2,8
6,75,California,San Francisco County,883305,6075,37.752151,-122.43857,239905,6.7,10,337,179193,0.207,1,Metropolitan,10.15553353,1366,156.85158,638:01:00,18.5,Metropolitan/Urban,0,462728,883305,450363,432942,467444,49184,11.5,12.3,19.1,57.1,87596,110601,788,9.048246213,12,3.0,8
6,77,California,San Joaquin County,752660,6077,37.934338,-121.273,180515,10,7,121,123774,0.171,1,Metropolitan,12.2277161,434,59.15152,1691:01:00,29.8,Metropolitan/Urban,0,295846,752660,375136,377524,500416,62512,21.1,28.2,32.2,18.4,105351,63567,349,4.756654205,20,3.9,9
6,79,California,San Luis Obispo County,284010,6079,35.388222,-120.4039,95994,6.9,3,46,70097,0.25,2,Metropolitan,11.21189404,237,83.77904,1194:01:00,23.5,Metropolitan/Urban,0,94848,284010,144092,139918,252186,5829,9.1,19.8,36.4,34.6,34200,70626,255,9.014200016,13,3.5,7
6,81,California,San Mateo County,769545,6081,37.422882,-122.32755,223621,6.8,7,131,161619,0.212,1,Metropolitan,9.08424947,789,103.16463,969:01:00,21.3,Metropolitan/Urban,0,331593,769545,380308,389237,462008,21123,10.8,15,24.2,49.9,51830,122930,445,5.818537468,12,2.7,9
6,83,California,Santa Barbara County,446527,6083,34.653294,-120.01885,119087,8.2,5,82,86816,0.196,2,Metropolitan,11.1877815,335,75.08349,1332:01:00,21,Metropolitan/Urban,0,158227,446527,223377,223150,381389,10857,19,17.9,29.2,33.8,54029,75646,349,7.822130578,18,3.8,8
6,85,California,Santa Clara County,1937570,6085,37.231049,-121.69704,489703,7.3,9,313,338720,0.177,1,Metropolitan,8.199431207,1972,102.74033,973:01:00,19.8,Metropolitan/Urban,0,859392,1937570,980868,956702,1028134,54961,11.9,14.5,22.3,51.3,139074,125933,1091,5.684062015,12,2.9,8
6,87,California,Santa Cruz County,274255,6087,37.055801,-122.00665,81755,6.2,3,22,57232,0.209,1,Metropolitan,11.555175,273,99.39091,1006:01:00,17.4,Metropolitan/Urban,0,98795,274255,135725,138530,238965,3959,13.6,15.8,30.6,40,32027,84213,193,7.02653701,16,3.7,8
6,89,California,Shasta County,180040,6089,40.763916,-122.03969,63938,9,4,81,47900,0.268,2,Metropolitan,14.31330477,127,70.70049,1414:01:00,22.7,Metropolitan/Urban,0,63846,180040,88367,91673,158162,2165,9.2,24.8,43.8,22.2,26919,53908,146,8.127773046,15,3.7,9
6,91,California,Sierra County,2987,6091,39.577133,-120.52007,1504,4.5,0,0,986,0.342,10,Rural and Small towns,11.55592401,1,33.93281,2947:01:00,22.8,"Low comuting micropolitan, Rural and Small towns",1,856,2987,1511,1476,2783,19,6.7,26.6,48,18.7,392,52308,1,3.393281303,14,3.5,10
6,93,California,Siskiyou County,43724,6093,41.591988,-122.54074,18311,10.3,2,4,14018,0.322,9,Rural and Small towns,14.59513042,34,77.97629,1282:01:00,24.9,"Low comuting micropolitan, Rural and Small towns",1,13685,43724,21731,21993,37631,647,10,25.5,41.9,22.5,7396,47560,50,11.46710089,17,4.1,10
6,95,California,Solano County,446610,6095,38.268272,-121.93571,130699,9.2,4,92,90069,0.207,1,Metropolitan,11.76509788,351,79.73522,1254:01:00,27.4,Metropolitan/Urban,0,178472,446610,221997,224613,266678,66167,12,23.3,38.5,26.2,34281,82808,240,5.451980546,15,3.4,11
6,97,California,Sonoma County,499942,6097,38.527466,-122.88625,170901,6,8,82,124291,0.248,2,Metropolitan,11.15110372,506,100.58242,994:01:00,19.8,Metropolitan/Urban,0,190566,499942,244124,255818,434068,10269,12,18.8,34.4,34.9,48846,81002,343,6.818136641,13,3.4,8
6,99,California,Stanislaus County,549815,6099,37.558624,-120.99707,134608,10.9,5,88,92698,0.173,1,Metropolitan,12.65945641,347,64.07416,1561:01:00,31.2,Metropolitan/Urban,0,214966,549815,272316,277499,458862,19001,21.7,28.6,32.8,16.9,84744,59616,308,5.687273802,19,3.9,10
6,101,California,Sutter County,96807,6101,39.034176,-121.69459,26555,9.3,1,0,19219,0.201,1,Metropolitan,13.07124651,77,79.66808,1255:01:00,26.9,Metropolitan/Urban,0,36847,96807,48222,48585,70515,2639,22,23.9,36.4,17.7,13011,57879,53,5.48364735,18,3.8,9
6,103,California,Tehama County,63916,6103,40.12571,-122.23701,21428,8,1,8,15876,0.251,5,Micropolitan,14.7413241,26,41.08983,2434:01:00,25.1,Metropolitan/Urban,1,22257,63916,31743,32173,57718,637,15.6,30.7,38.2,15.5,10749,47572,38,6.0054365,19,4.2,9
6,105,California,Trinity County,12535,6105,40.649178,-123.11472,5787,5.3,1,0,4734,0.363,10,Rural and Small towns,15.33494556,3,23.47051,4261:01:00,24.7,"Low comuting micropolitan, Rural and Small towns",1,3914,12535,6442,6093,10906,87,9.4,33.4,37.6,19.7,2656,40680,7,5.47645126,17,4.2,10
6,107,California,Tulare County,465861,6107,36.220264,-118.80202,99575,9.3,4,51,69266,0.151,2,Metropolitan,15.7733915,206,44.74011,2235:01:00,33.5,Metropolitan/Urban,0,176394,465861,233078,232783,410842,10228,30.2,26,29.5,14.3,102451,48763,209,4.539166053,27,4.5,9
6,109,California,Tuolumne County,54539,6109,38.02644,-119.95251,23116,7.3,1,6,17942,0.333,6,Micropolitan,12.29873162,45,83.6369,1196:01:00,23.9,"Low comuting micropolitan, Rural and Small towns",1,18640,54539,28296,26243,49268,1109,9.6,28.4,42,20,6417,56500,50,9.292989369,14,3.5,9
6,111,California,Ventura County,850967,6111,34.444656,-119.09106,244622,8.3,7,139,167777,0.198,1,Metropolitan,10.64246705,647,76.14112,1313:01:00,21,Metropolitan/Urban,0,332563,850967,421319,429648,715662,20232,15.6,18.9,32.4,33.1,76206,84170,504,5.931239982,15,3.3,8
6,113,California,Yolo County,220408,6113,38.682789,-121.90183,50273,6.5,2,14,34981,0.165,1,Metropolitan,11.68360979,266,123.26114,811:01:00,22.9,Metropolitan/Urban,0,79525,220408,106746,113662,163630,6596,13.6,18.5,26.3,41.6,42311,67804,136,6.302073197,16,3.7,7
6,115,California,Yuba County,78041,6115,39.262558,-121.35356,18791,11.6,1,24,12327,0.165,2,Metropolitan,14.85597663,17,22.58386,4428:01:00,28,Metropolitan/Urban,0,30326,78041,39503,38538,61101,3420,18,23.1,42.3,16.7,13256,47504,38,5.048156759,18,4.1,8
8,1,Colorado,Adams County,511868,8001,39.874321,-104.33626,109117,8,3,168,69778,0.143,1,Metropolitan,18.06983536,213,42.75503,2339:01:00,26.8,Metropolitan/Urban,0,222638,511868,258470,253398,440318,20171,17,28.4,31,23.6,46711,70199,223,4.476230813,15,3.5,8
8,3,Colorado,Alamosa County,16683,8003,37.572506,-105.78854,4075,6.2,1,6,2952,0.181,8,Rural and Small towns,17.13742749,12,72.05476,1388:01:00,19.9,"Low comuting micropolitan, Rural and Small towns",1,5695,16683,8361,8322,14559,353,13.5,27.3,33.1,26.1,2954,42897,19,11.40867059,20,4.1,6
8,5,Colorado,Arapahoe County,651215,8005,39.649776,-104.33537,164335,6.8,3,127,111767,0.178,1,Metropolitan,13.44736207,536,84.13545,1189:01:00,21.9,Metropolitan/Urban,0,280717,651215,322713,328502,499651,74075,7.6,20.7,29.5,42.2,52474,76665,509,7.989727941,12,2.7,7
8,7,Colorado,Archuleta County,13765,8007,37.19474,-107.04768,6095,3,1,0,4283,0.34,8,Rural and Small towns,13.90336176,11,85.57647,1169:01:00,19.4,"Low comuting micropolitan, Rural and Small towns",1,4403,13765,6898,6867,12660,107,8,21.5,31.7,38.9,1525,53337,17,13.22545511,13,3.3,7
8,9,Colorado,Baca County,3585,8009,37.319408,-102.56033,1433,11.7,1,0,1178,0.329,10,Rural and Small towns,15.78349063,3,84.08072,1189:01:00,22.3,"Low comuting micropolitan, Rural and Small towns",1,1098,3585,1800,1785,3364,39,15.2,27.3,35.3,22.1,678,38294,6,16.8161435,16,3.7,9
8,11,Colorado,Bent County,5882,8011,37.954742,-103.07202,1811,6.8,0,0,1296,0.223,7,Rural and Small towns,20.6645425,1,17.06193,5861:01:00,25.4,"Low comuting micropolitan, Rural and Small towns",1,2676,5882,3848,2034,5008,464,14.2,48.6,24.7,12.4,1353,37659,4,6.824773929,21,4.1,7
8,13,Colorado,Boulder County,326078,8013,40.093136,-105.35468,87544,4.6,5,72,59425,0.188,1,Metropolitan,10.95400533,398,123.51579,810:01:00,14.9,Metropolitan/Urban,0,127988,326078,164069,162009,294110,3820,4.9,12.3,22,60.8,30699,83591,305,9.465406268,9,2.9,4
8,14,Colorado,Broomfield County,69267,8014,39.959988,-105.05663,17665,6.5,1,20,11264,0.175,3,Metropolitan,12.83650941,68,102.21107,978:01:00,18.8,Metropolitan/Urban,0,30378,69267,34441,34826,60960,1049,3.2,14.7,26.7,55.5,3364,96924,43,6.463346811,10,2.8,6
8,15,Colorado,Chaffee County,20027,8015,38.747459,-106.19266,8422,5.2,1,2,6312,0.335,7,Rural and Small towns,13.33834298,17,89.20139,1121:01:00,17,"Low comuting micropolitan, Rural and Small towns",1,7364,20027,10582,9445,18815,348,7.1,26.7,32.6,33.5,2023,56168,38,19.93913317,12,3.1,7
8,17,Colorado,Cheyenne County,1876,8017,38.827774,-102.60326,665,10,1,0,380,0.179,10,Rural and Small towns,13.52830637,1,54.11255,1848:01:00,22.8,"Low comuting micropolitan, Rural and Small towns",1,607,1876,954,922,1789,17,9.9,36.4,33.8,20,230,54504,2,10.82251082,12,3.1,7
8,19,Colorado,Clear Creek County,9605,8019,39.688644,-105.64631,3820,5.2,0,0,2454,0.265,5,Micropolitan,12.33436405,,60.52241748,,20.2,Metropolitan/Urban,1,3836,9605,5067,4538,9068,108,1.7,20.9,30.9,46.5,686,74019,6,6.358626537,9,2.8,8
8,21,Colorado,Conejos County,8200,8021,37.201607,-106.19175,2719,6.3,1,0,2034,0.25,9,Rural and Small towns,17.06183625,5,61.50818,1626:01:00,23.6,"Low comuting micropolitan, Rural and Small towns",1,2644,8200,4117,4083,7519,77,13.4,32.4,34,20.2,1747,38777,5,6.150818059,23,4.4,7
8,23,Colorado,Costilla County,3828,8023,37.277325,-105.42766,1715,9.9,0,0,1272,0.351,10,Rural and Small towns,18.78240666,,73.44133296,,21.7,"Low comuting micropolitan, Rural and Small towns",1,1137,3828,1982,1846,3375,78,21.5,23.8,35.6,19.1,964,31557,2,5.374899221,29,4.8,9
8,25,Colorado,Crowley County,5858,8025,38.326088,-103.7845,1461,5.6,0,0,1074,0.195,10,Rural and Small towns,22.02534102,1,17.56235,5694:01:00,22.9,"Low comuting micropolitan, Rural and Small towns",1,3145,5858,4286,1572,4828,626,15.2,41.7,33.5,9.6,1341,35880,4,7.024938532,24,4.4,6
8,27,Colorado,Custer County,4954,8027,38.108833,-105.36835,2740,4.2,0,0,2092,0.464,10,Rural and Small towns,14.67179448,2,43.45937,2301:01:00,22.1,"Low comuting micropolitan, Rural and Small towns",1,1295,4954,2555,2399,4680,74,7,21,35.1,36.9,576,55242,13,28.24858757,13,3.4,7
8,29,Colorado,Delta County,30953,8029,38.862461,-107.86314,13093,7,1,6,9773,0.323,8,Rural and Small towns,16.48020374,24,78.83845,1268:01:00,23.1,"Low comuting micropolitan, Rural and Small towns",1,9661,30953,15501,15452,29377,252,9.6,38.2,31,21.2,4429,46786,44,14.45371526,15,3.8,8
8,31,Colorado,Denver County,716492,8031,39.760181,-104.87257,154671,5.7,6,227,109403,0.161,1,Metropolitan,15.92843582,910,131.30176,762:01:00,16,Metropolitan/Urban,0,364623,716492,359590,356902,578904,70404,12.9,17,22.2,47.9,82104,68069,732,10.56185612,14,3.2,5
8,33,Colorado,Dolores County,2074,8033,37.752087,-108.52116,880,3.9,0,0,537,0.309,10,Rural and Small towns,16.70754943,,88.05131848,,18.6,"Low comuting micropolitan, Rural and Small towns",1,663,2074,1090,984,1940,8,8.2,38.3,32.2,21.3,265,47482,1,4.86381323,16,3.8,7
8,35,Colorado,Douglas County,342776,8035,39.331337,-104.93,83978,4.6,3,54,50139,0.156,1,Metropolitan,9.527502292,225,68.46564,1461:01:00,18.6,Metropolitan/Urban,0,143534,342776,171127,171649,308365,5274,2,12.2,27.9,57.9,8975,120670,200,6.085834611,8,2.5,5
8,37,Colorado,Eagle County,54993,8037,39.627544,-106.69337,13393,2.6,1,5,8107,0.151,6,Micropolitan,13.29632752,43,79.64585,1256:01:00,13.8,"Low comuting micropolitan, Rural and Small towns",1,25564,54993,29160,25833,51910,859,10.7,15.7,25.4,48.1,3673,86896,45,8.33503121,11,2.9,3
8,39,Colorado,Elbert County,26282,8039,39.286568,-104.13587,9230,4.8,0,0,5592,0.228,3,Metropolitan,13.20906097,5,19.81689,5046:01:00,22.6,Metropolitan/Urban,0,9467,26282,13278,13004,24823,355,3.3,24.6,36.2,35.9,1312,98247,17,6.737743252,10,2.8,6
8,41,Colorado,El Paso County,713856,8041,38.832401,-104.52514,174779,6.5,3,95,116223,0.172,1,Metropolitan,13.67758512,416,60.44017,1655:01:00,23.8,Metropolitan/Urban,0,288901,713856,360720,353136,594650,49474,6.3,20.2,35.6,37.9,68538,67923,584,8.484869618,12,3.4,7
8,43,Colorado,Fremont County,48021,8043,38.473621,-105.43996,17499,6.6,1,4,12609,0.271,5,Micropolitan,17.00836444,23,48.47616,2063:01:00,24.7,Metropolitan/Urban,1,19502,48021,27722,20299,43817,1889,9.7,39.8,32.3,18.2,6525,47885,48,10.11676432,15,3.6,9
8,45,Colorado,Garfield County,59770,8045,39.599216,-107.90271,15688,4.2,2,5,10202,0.176,5,Micropolitan,13.09940015,51,86.60655,1155:01:00,21.6,Metropolitan/Urban,1,24220,59770,30533,29237,56127,744,12.2,28.5,29.2,30,4946,74421,58,9.849372527,13,3.1,5
8,47,Colorado,Gilpin County,6121,8047,39.856464,-105.52526,2315,4.3,0,0,1583,0.273,2,Metropolitan,14.35466938,2,33.72113,2966:01:00,21.3,Metropolitan/Urban,0,2553,6121,3212,2909,5718,74,2.4,22,36.8,38.7,410,72949,3,5.058168943,10,2.9,6
8,49,Colorado,Grand County,15525,8049,40.106033,-106.11781,5637,3.9,1,0,3858,0.261,9,Rural and Small towns,14.41347793,10,66.63113,1501:01:00,16.3,"Low comuting micropolitan, Rural and Small towns",1,6206,15525,8319,7206,14758,160,4.5,26.5,31.2,37.8,1219,69214,26,17.32409382,10,2.9,6
8,51,Colorado,Gunnison County,17246,8051,38.666115,-107.03207,4366,2.5,1,0,2905,0.179,9,Rural and Small towns,15.58552523,13,79.22964,1262:01:00,15.9,"Low comuting micropolitan, Rural and Small towns",1,6828,17246,9300,7946,16208,123,2.8,16,25.9,55.3,1678,61268,31,18.89322282,12,3.4,5
8,53,Colorado,Hinsdale County,811,8053,37.822475,-107.30044,389,3.2,0,0,329,0.401,10,Rural and Small towns,13.90244163,0,0,788:00:00,19.5,"Low comuting micropolitan, Rural and Small towns",1,234,811,418,393,764,5,6.2,25.7,24.3,43.9,69,62149,3,38.07106599,12,3.3,7
8,55,Colorado,Huerfano County,6889,8055,37.684731,-104.96126,3464,5.1,1,0,2568,0.395,9,Rural and Small towns,14.56257993,6,89.86072,1113:01:00,21.7,"Low comuting micropolitan, Rural and Small towns",1,1952,6889,3513,3376,6129,91,8.5,28.7,41.3,21.4,1459,38242,11,16.47446458,18,3.7,9
8,57,Colorado,Jackson County,1399,8057,40.665939,-106.34089,568,6.7,0,0,398,0.29,10,Rural and Small towns,14.97094277,1,73.69197,1357:01:00,22.6,"Low comuting micropolitan, Rural and Small towns",1,517,1399,724,675,1329,2,12.4,29.6,41.1,16.8,188,51457,3,22.10759027,13,3.4,8
8,59,Colorado,Jefferson County,580233,8059,39.586357,-105.25177,179089,5.1,4,94,124374,0.221,1,Metropolitan,13.30239673,470,82.19125,1217:01:00,20.5,Metropolitan/Urban,0,241799,580233,289294,290939,532081,8173,5.6,20.6,29.7,44.1,39799,85550,439,7.677012855,10,2.8,6
8,61,Colorado,Kiowa County,1383,8061,38.43261,-102.73921,560,6.9,1,0,370,0.27,10,Rural and Small towns,14.4991429,0,0,1373:00:00,22.2,"Low comuting micropolitan, Rural and Small towns",1,403,1383,673,710,1334,9,4.1,38,36.5,21.5,188,44704,3,21.84996358,13,3.4,8
8,63,Colorado,Kit Carson County,7163,8063,39.304977,-102.60222,2448,7.6,1,0,1873,0.239,9,Rural and Small towns,14.46163772,3,36.60769,2732:01:00,28,"Low comuting micropolitan, Rural and Small towns",1,2379,7163,3582,3581,6829,58,11.5,37.7,31.8,18.9,900,48342,15,18.30384381,14,3.4,8
8,65,Colorado,Lake County,7824,8065,39.202789,-106.35557,2129,7.2,1,0,1439,0.192,7,Rural and Small towns,15.34234743,6,78.76083,1270:01:00,16.7,"Low comuting micropolitan, Rural and Small towns",1,3400,7824,4207,3617,7280,82,14.5,27.1,24.4,34,970,51802,10,13.12680494,15,3.4,6
8,67,Colorado,La Plata County,56310,8067,37.28632,-107.8429,18343,4.4,2,11,12490,0.229,5,Micropolitan,12.93908747,60,107.86905,927:01:00,20.1,Metropolitan/Urban,1,22088,56310,28411,27899,49772,344,5,20.3,30.8,43.9,5005,66219,59,10.60712295,11,3.1,5
8,69,Colorado,Larimer County,350518,8069,40.666718,-105.46258,98777,4.7,5,55,67199,0.203,1,Metropolitan,12.60744805,297,87.35474,1145:01:00,18.8,Metropolitan/Urban,0,133603,350518,174991,175527,324981,4034,4.2,19.2,30.2,46.3,36054,71306,314,9.23548426,10,3.0,5
8,71,Colorado,Las Animas County,14503,8071,37.315342,-104.03764,5799,7.7,1,0,4307,0.304,7,Rural and Small towns,15.05132109,10,70.9069,1410:01:00,24.5,"Low comuting micropolitan, Rural and Small towns",1,4767,14503,7572,6931,13097,318,12.2,28.8,39.3,19.7,2626,41485,19,13.47231086,18,3.7,8
8,73,Colorado,Lincoln County,5610,8073,38.987495,-103.51366,1707,7.9,1,0,1200,0.217,10,Rural and Small towns,15.57505296,1,17.72107,5643:01:00,24.6,"Low comuting micropolitan, Rural and Small towns",1,2317,5610,3277,2333,5034,312,9.7,53.1,24.4,12.8,744,46690,7,12.40474925,15,3.4,7
8,75,Colorado,Logan County,21528,8075,40.724964,-103.11082,6692,10,1,4,5056,0.231,5,Micropolitan,15.63803408,17,77.55828,1289:01:00,33.4,Metropolitan/Urban,1,8569,21528,12030,9498,19749,824,10.5,32.7,36.3,20.5,2674,53168,29,13.23053059,14,3.4,9
8,77,Colorado,Mesa County,153207,8077,39.017879,-108.4698,50626,7,3,44,35763,0.24,1,Metropolitan,17.19761923,163,108.60657,921:01:00,22.7,Metropolitan/Urban,0,55482,153207,75720,77487,144010,1444,9.9,27.3,35.4,27.4,21463,51132,133,8.861763158,15,3.7,7
8,79,Colorado,Mineral County,776,8079,37.669544,-106.92817,394,3.7,0,0,394,0.472,10,Rural and Small towns,13.31301682,1,136.61202,732:01:00,18.6,"Low comuting micropolitan, Rural and Small towns",1,240,776,385,391,747,2,3.2,19.3,37.6,39.9,72,60210,4,54.64480874,11,3.0,7
8,81,Colorado,Moffat County,13188,8081,40.618111,-108.20708,3913,7.2,1,0,2777,0.213,6,Micropolitan,15.52945557,6,45.77008,2185:01:00,24.9,"Low comuting micropolitan, Rural and Small towns",1,4876,13188,6763,6425,12469,103,9.1,40.4,33.5,17.1,1614,59500,15,11.44252041,14,3.4,8
8,83,Colorado,Montezuma County,26158,8083,37.338596,-108.59589,9891,10.1,1,4,7299,0.283,8,Rural and Small towns,17.34369205,23,85.18834,1174:01:00,24.3,"Low comuting micropolitan, Rural and Small towns",1,8776,26158,12901,13257,21487,134,10.5,29.4,31.5,28.6,4235,50180,26,9.629986296,17,4.0,8
8,85,Colorado,Montrose County,42214,8085,38.402142,-108.2639,16226,5.7,1,8,12041,0.294,5,Micropolitan,13.96724274,26,62.69441,1595:01:00,20.7,Metropolitan/Urban,1,13965,42214,20815,21399,39800,307,11.2,31.8,33.1,23.9,4854,52576,41,9.88642666,15,3.6,9
8,87,Colorado,Morgan County,28558,8087,40.262798,-103.80933,8003,9.1,2,6,6047,0.215,5,Micropolitan,16.25500302,16,56.58909,1767:01:00,31.2,Metropolitan/Urban,1,10602,28558,14410,14148,26164,1072,19.9,31.1,31.4,17.6,3409,55387,34,12.02518215,16,3.5,9
8,89,Colorado,Otero County,18432,8089,37.901447,-103.71734,6191,9.6,1,506,4816,0.263,8,Rural and Small towns,17.85256841,11,60.12572,1663:01:00,29,"Low comuting micropolitan, Rural and Small towns",1,6144,18432,9025,9407,16616,323,14.6,29.2,38.4,17.7,3722,40064,28,15.30472807,23,4.3,8
8,91,Colorado,Ouray County,4833,8091,38.147175,-107.76752,2318,4.6,0,0,1815,0.39,10,Rural and Small towns,12.63184499,5,102.9442,971:01:00,19.3,"Low comuting micropolitan, Rural and Small towns",1,1544,4833,2446,2387,4645,4,1.6,18.2,31.6,48.6,361,68900,8,16.47107268,11,3.0,8
8,93,Colorado,Park County,18556,8093,39.120926,-105.71821,8080,3.1,0,0,4718,0.279,7,Rural and Small towns,14.62196691,3,17.47641,5722:01:00,20.6,"Low comuting micropolitan, Rural and Small towns",1,6749,18556,9768,8788,17480,161,3,29.9,36.9,30.2,1487,72121,11,6.408015845,10,2.8,6
8,95,Colorado,Phillips County,4286,8095,40.594143,-102.35777,1571,9.6,2,0,1037,0.24,10,Rural and Small towns,13.46123005,6,139.92537,715:01:00,23.5,"Low comuting micropolitan, Rural and Small towns",1,1361,4286,2115,2171,4128,45,11.8,27.6,35.1,25.5,458,52367,12,27.98507463,12,3.2,9
8,97,Colorado,Pitkin County,17950,8097,39.217201,-106.931,6289,1.5,1,4,4417,0.249,8,Rural and Small towns,12.70058651,13,73.23119,1366:01:00,15.3,"Low comuting micropolitan, Rural and Small towns",1,7809,17950,9289,8661,17043,188,3.7,14.8,18.4,63.1,1222,89034,35,19.71608833,10,3.0,5
8,99,Colorado,Prowers County,12164,8099,37.955448,-102.39261,3783,10.8,1,0,2840,0.235,8,Rural and Small towns,16.54185447,4,33.55142,2981:01:00,29.4,"Low comuting micropolitan, Rural and Small towns",1,4000,12164,6113,6051,11514,108,17.9,25.9,38.8,17.4,2553,42455,21,17.61449421,18,3.7,10
8,101,Colorado,Pueblo County,167529,8101,38.173592,-104.51274,53532,8.1,2,32,39318,0.241,1,Metropolitan,17.13706218,104,62.98335,1588:01:00,28,Metropolitan/Urban,0,61524,167529,82556,84973,151042,4324,10.6,28.7,38.8,22,28127,48308,139,8.417967212,22,4.6,8
8,103,Colorado,Rio Blanco County,6336,8103,39.979134,-108.2179,1952,3.3,2,0,1362,0.208,10,Rural and Small towns,14.08714028,10,152.78839,655:01:00,20.8,"Low comuting micropolitan, Rural and Small towns",1,2277,6336,3237,3099,5933,79,7.2,33.7,38.8,20.2,653,63411,10,15.27883881,12,3.1,6
8,105,Colorado,Rio Grande County,11250,8105,37.583687,-106.38478,3898,6.2,1,0,2857,0.25,9,Rural and Small towns,13.69843681,13,113.25028,883:01:00,23,"Low comuting micropolitan, Rural and Small towns",1,3918,11250,5624,5626,10408,115,15.7,30.2,30.4,23.7,1604,44171,22,19.16543253,17,3.8,7
8,107,Colorado,Routt County,25733,8107,40.485966,-106.99055,7958,2.9,1,4,4914,0.202,5,Micropolitan,12.41328906,28,113.59948,880:01:00,14.2,Metropolitan/Urban,1,11108,25733,13399,12334,24658,237,3.2,19.7,26.6,50.4,1783,81033,36,14.60564752,10,2.9,4
8,109,Colorado,Saguache County,6843,8109,38.080547,-106.28246,2822,10.9,0,0,1917,0.302,10,Rural and Small towns,18.11379631,2,31.3038,3195:01:00,23.4,"Low comuting micropolitan, Rural and Small towns",1,2135,6843,3426,3417,6254,76,19.6,29.8,27.8,22.9,1679,36869,8,12.52152137,21,4.5,8
8,111,Colorado,San Juan County,762,8111,37.762489,-107.67633,322,3.1,0,0,164,0.288,10,Rural and Small towns,15.56205628,1,144.09222,694:01:00,20.4,"Low comuting micropolitan, Rural and Small towns",1,308,762,427,335,725,1,7.1,26.7,31.7,34.5,109,46878,1,14.4092219,13,3.3,7
8,113,Colorado,San Miguel County,8191,8113,38.004509,-108.40207,2437,1.7,0,0,1475,0.189,10,Rural and Small towns,14.79919473,6,74.84096,1336:01:00,17.6,"Low comuting micropolitan, Rural and Small towns",1,3820,8191,4359,3832,7791,71,5,15.2,23.2,56.7,702,69458,8,9.978795061,11,3.0,5
8,115,Colorado,Sedgwick County,2303,8115,40.875954,-102.35192,992,8.7,1,0,770,0.327,10,Rural and Small towns,14.92117796,2,83.09098,1204:01:00,21.2,"Low comuting micropolitan, Rural and Small towns",1,705,2303,1137,1166,2164,22,9.9,30,39.3,20.8,338,40009,4,16.61819693,14,3.3,9
8,117,Colorado,Summit County,31007,8117,39.638031,-106.11507,8500,3.3,1,8,5667,0.191,5,Micropolitan,14.87980732,22,72.43037,1381:01:00,14.5,Metropolitan/Urban,1,15335,31007,16816,14191,29468,394,6.7,19,23.3,51,2056,80078,25,8.230723645,10,3.0,4
8,119,Colorado,Teller County,25083,8119,38.881336,-105.16149,10837,4.6,1,0,6744,0.284,5,Micropolitan,13.51400084,14,58.22901,1717:01:00,20.3,Metropolitan/Urban,1,8456,25083,12734,12349,23592,238,4.2,25.5,36.2,34,1851,64850,31,12.8935657,9,2.7,8
8,121,Colorado,Washington County,4909,8121,39.970154,-103.20258,1741,11.1,0,0,1285,0.267,10,Rural and Small towns,13.71799846,1,20.3749,4908:01:00,24.3,"Low comuting micropolitan, Rural and Small towns",1,1692,4909,2552,2357,4724,61,7.5,32,44.3,16.2,646,47869,8,16.2999185,12,3.3,8
8,123,Colorado,Weld County,314305,8123,40.554993,-104.39296,74359,6.9,1,26,48279,0.169,2,Metropolitan,15.520743,145,49.16388,2034:01:00,26.4,Metropolitan/Urban,0,128979,314305,158475,155830,291084,4868,11.9,27.5,33.8,26.7,32314,75629,198,6.713411905,14,3.3,7
8,125,Colorado,Yuma County,10020,8125,40.003468,-102.42587,3083,7.7,2,0,2385,0.236,9,Rural and Small towns,15.00403127,4,39.5922,2526:01:00,25.2,"Low comuting micropolitan, Rural and Small towns",1,3496,10020,4989,5031,9684,60,11.9,33.5,32.5,22.1,1191,53253,18,17.81649015,15,3.4,8
9,1,Connecticut,Fairfield County,943823,9001,41.268101,-73.388115,282213,6.4,6,173,197334,0.208,1,Metropolitan,10.44629179,880,93.20286,1073:01:00,21.6,Metropolitan/Urban,0,363527,943823,459748,484075,742641,120100,10.1,21.7,20.9,47.4,92971,91183,858,9.087279186,11,2.9,7
9,3,Connecticut,Hartford County,892697,9003,41.80283,-72.731041,276456,8.6,7,216,201242,0.224,1,Metropolitan,12.58687662,844,94.57759,1057:01:00,25.8,Metropolitan/Urban,0,348336,892697,434117,458580,671681,139802,10.5,26.9,24.9,37.8,96957,73037,925,10.36543481,13,3.2,10
9,5,Connecticut,Litchfield County,181111,9005,41.793755,-73.245148,69955,7,2,21,50170,0.272,4,Micropolitan,12.07309899,114,62.44146,1602:01:00,27.2,Metropolitan/Urban,1,64685,181111,89551,91560,169456,4124,7.4,29.7,27.8,35.1,12441,76304,197,10.79032267,9,2.6,8
9,7,Connecticut,Middlesex County,162682,9007,41.459496,-72.537148,59540,5.7,1,24,41372,0.252,1,Metropolitan,11.33875565,118,72.24681,1384:01:00,24.8,Metropolitan/Urban,0,60066,162682,79242,83440,144706,8939,5.8,26.1,26.6,41.5,10556,88709,168,10.28598718,10,2.8,7
9,9,Connecticut,New Haven County,857620,9009,41.408031,-72.936203,268536,8.6,8,186,194911,0.226,1,Metropolitan,13.64890156,766,89.3946,1119:01:00,27.1,Metropolitan/Urban,0,330408,857620,413494,444126,665803,128295,9.9,30.9,24.3,34.9,96563,67720,733,8.554339898,13,3.2,9
9,11,Connecticut,New London County,266784,9011,41.488964,-72.104309,88224,7.5,2,32,63495,0.234,1,Metropolitan,13.25646549,176,65.23326,1533:01:00,29.6,Metropolitan/Urban,0,100100,266784,133702,133082,222998,18613,8.1,29.8,28.8,33.3,25063,67790,265,9.822054032,12,3.2,9
9,13,Connecticut,Tolland County,150921,9013,41.85854,-72.330849,44836,7.3,2,16,31539,0.208,2,Metropolitan,12.34432513,76,50.29182,1988:01:00,24.4,Metropolitan/Urban,0,51309,150921,75598,75323,134268,5682,5.4,27.5,25.9,41.2,10835,89584,110,7.279079924,10,2.8,8
9,15,Connecticut,Windham County,117027,9015,41.829727,-71.981827,37166,9.6,2,6,25482,0.218,2,Metropolitan,16.41673676,56,48.19609,2075:01:00,31.1,Metropolitan/Urban,0,45246,117027,57943,59084,107727,3743,11.4,33,31.5,24.1,13135,65182,110,9.467088956,13,3.3,11
10,1,Delaware,Kent County,178550,10001,39.086468,-75.568848,53280,11.6,1,29,36849,0.213,2,Metropolitan,18.17064059,78,44.61553,2241:01:00,33.8,Metropolitan/Urban,0,66723,178550,86023,92527,118236,47806,12.9,33.2,30.4,23.6,23966,54980,144,8.236714009,17,3.5,13
10,3,Delaware,New Castle County,559335,10003,39.579926,-75.640549,162405,9.4,2,119,112051,0.202,1,Metropolitan,16.77249024,464,83.30536,1200:01:00,28.8,Metropolitan/Urban,0,224796,559335,271123,288212,363728,146038,8.5,30.6,25,35.9,62976,69562,581,10.43112317,15,3.3,10
10,5,Delaware,Sussex County,229286,10005,38.661438,-75.390312,101040,9.5,3,38,71832,0.333,4,Micropolitan,17.56139165,138,62.65579,1596:01:00,32.4,Metropolitan/Urban,1,71503,229286,110781,118505,190055,28226,12.3,32.8,28.4,26.5,27750,59821,242,10.9874643,16,3.3,13
11,1,District of Columbia,District of Columbia,702455,11001,38.904179,-77.016563,155605,8.8,6,314,113026,0.168,1,Metropolitan,16.68600618,802,117.7386,849:01:00,23,Metropolitan/Urban,0,345214,702455,333307,369148,320374,326181,9.4,17.2,15.9,57.6,107806,82533,1881,27.61425195,13,3.0,8
12,1,Florida,Alachua County,269956,12001,29.678665,-82.359283,67090,9.2,2,210,47766,0.184,1,Metropolitan,14.8948162,392,148.76886,672:01:00,25.3,Metropolitan/Urban,0,98047,269956,130428,139528,188584,55575,7.6,21.7,28.1,42.5,50922,51026,259,9.829371224,19,4.4,9
12,3,Florida,Baker County,28355,12003,30.330601,-82.284676,7538,14.6,1,0,5367,0.195,2,Metropolitan,19.40368539,10,35.79482,2794:01:00,36.7,Metropolitan/Urban,0,11777,28355,14917,13438,23533,3972,15.5,42.8,28.4,13.4,3944,52804,22,7.874861295,20,4.3,14
12,5,Florida,Bay County,185287,12005,30.265488,-85.621223,58064,10,2,77,40210,0.223,1,Metropolitan,18.03883197,100,54.35551,1840:01:00,29.5,Metropolitan/Urban,0,72890,185287,91929,93358,151384,21641,9.7,31.4,36.1,22.8,24276,51777,162,8.805592095,19,4.2,11
12,7,Florida,Bradford County,27732,12007,29.950798,-82.166115,8620,10.9,1,0,6394,0.239,2,Metropolitan,21.54745229,9,33.42494,2992:01:00,37,Metropolitan/Urban,0,11495,27732,15318,12414,21282,5561,21.7,39.7,28,10.6,4618,45075,36,13.36997697,20,4.6,12
12,9,Florida,Brevard County,596849,12009,28.294096,-80.730911,239165,10.1,7,159,170919,0.301,1,Metropolitan,17.12400232,423,73.0406,1369:01:00,27.9,Metropolitan/Urban,0,205620,596849,291903,304946,496843,64016,8,28.6,34.1,29.3,64854,57612,443,7.649405142,16,4.0,13
12,11,Florida,Broward County,1951260,12011,26.151846,-80.487259,586034,8.1,14,587,406732,0.215,1,Metropolitan,14.19505811,1392,72.89363,1372:01:00,25.3,Metropolitan/Urban,0,799063,1951260,950568,1000692,1233595,587182,11.2,27.4,29.5,31.9,244310,57200,1053,5.514151418,16,3.7,10
12,13,Florida,Calhoun County,14587,12013,30.406668,-85.193939,4534,14.9,1,0,3483,0.241,5,Micropolitan,19.98091653,7,48.53359,2060:01:00,34.1,Metropolitan/Urban,1,6052,14587,7962,6625,11984,1927,21.9,41.9,26.3,9.9,2697,38323,14,9.706718436,24,5.1,15
12,15,Florida,Charlotte County,184998,12015,26.90131,-81.929489,106231,8.1,3,51,81236,0.469,1,Metropolitan,16.44984271,114,63.87807,1565:01:00,27.1,Metropolitan/Urban,0,47300,184998,90256,94742,167333,11100,9.7,33.8,33.3,23.2,20243,52724,112,6.275740341,15,3.8,13
12,17,Florida,Citrus County,147929,12017,28.848043,-82.476151,77786,10.5,2,40,61636,0.436,1,Metropolitan,18.4434352,77,53.61333,1865:01:00,27.3,Metropolitan/Urban,0,40352,147929,71714,76215,137581,4656,11.9,38.3,32.1,17.6,22082,41556,126,8.773090286,19,4.5,15
12,19,Florida,Clay County,216072,12019,29.983191,-81.856102,63878,10,2,28,41495,0.204,1,Metropolitan,17.82554271,112,53.76576,1860:01:00,30.5,Metropolitan/Urban,0,85022,216072,106560,109512,174163,26623,8.9,31.6,35.5,24.1,18846,62835,140,6.720720461,15,3.7,12
12,21,Florida,Collier County,378488,12021,26.11092,-81.34687,172680,6.1,2,73,132129,0.37,1,Metropolitan,11.11242132,264,72.30183,1383:01:00,21.4,Metropolitan/Urban,0,116206,378488,186769,191719,337959,28052,13.6,25.4,24.8,36.2,39689,70649,278,7.613601507,16,3.5,9
12,23,Florida,Columbia County,70503,12023,30.225098,-82.621605,23083,13,2,27,17039,0.249,4,Micropolitan,22.0678617,31,44.73369,2235:01:00,35.5,Metropolitan/Urban,1,25962,70503,36366,34137,54851,13013,13.3,36.1,35,15.6,11340,46195,56,8.080924689,22,4.6,14
12,27,Florida,DeSoto County,37489,12027,27.186779,-81.80941,12770,12.7,1,8,9739,0.273,3,Metropolitan,20.2322291,8,22.34637,4475:01:00,30.1,Metropolitan/Urban,0,14268,37489,21230,16259,31577,4731,27.3,43.1,18.1,11.4,9013,37233,32,8.938547486,26,5.2,13
12,29,Florida,Dixie County,16700,12029,29.606312,-83.157249,6505,12.1,0,0,5078,0.311,2,Metropolitan,24.74569113,1,6.13497,16300:1,34.5,Metropolitan/Urban,0,6059,16700,9244,7456,14595,1642,20.7,44.7,25.2,9.4,3679,37148,15,9.202453988,27,5.5,16
12,31,Florida,Duval County,950181,12031,30.332258,-81.669762,254771,11.3,7,412,171837,0.188,1,Metropolitan,18.1628334,778,83.99415,1191:01:00,30.8,Metropolitan/Urban,0,397042,950181,460434,489747,577732,290505,10.5,27.9,32.5,29.2,134476,55733,804,8.680115087,18,3.8,11
12,33,Florida,Escambia County,315534,12033,30.676527,-87.372849,95986,11.8,3,120,68143,0.22,1,Metropolitan,16.70521768,199,63.13712,1584:01:00,27.7,Metropolitan/Urban,0,117651,315534,156179,159355,217466,73229,9.2,27.3,37.1,26.4,43832,50644,269,8.534615958,17,4.0,14
12,35,Florida,Flagler County,112067,12035,29.459335,-81.315086,52060,8.5,1,18,38651,0.368,1,Metropolitan,15.5408318,54,49.85689,2006:01:00,25.3,Metropolitan/Urban,0,34279,112067,53927,58140,94080,12035,8,33.9,33.7,24.4,11450,58975,69,6.370602899,14,3.6,13
12,37,Florida,Franklin County,11736,12037,29.837912,-84.827316,4559,9.9,1,0,3127,0.268,6,Micropolitan,18.16087652,3,25.20797,3967:01:00,33.9,"Low comuting micropolitan, Rural and Small towns",1,4534,11736,6545,5191,9865,1455,19.7,35.7,27.4,17.1,2343,40297,14,11.76371734,19,4.3,13
12,39,Florida,Gadsden County,45894,12039,30.577963,-84.619156,14840,17.9,1,0,10880,0.236,2,Metropolitan,17.24891417,7,15.21541,6572:01:00,42.3,Metropolitan/Urban,0,17219,45894,21790,24104,19115,25595,20.7,36.6,26.1,16.7,10259,42259,52,11.30287354,24,4.6,18
12,41,Florida,Gilchrist County,18256,12041,29.728569,-82.798805,6372,12.8,0,0,4554,0.265,4,Micropolitan,21.49158071,6,34.8594,2869:01:00,34.2,Metropolitan/Urban,1,6036,18256,9429,8827,16650,1023,14.1,42.2,29.6,14.2,2856,42186,10,5.80990007,20,4.9,13
12,43,Florida,Glades County,13724,12043,26.956358,-81.189964,5547,18,0,0,4162,0.315,7,Rural and Small towns,20.50195437,1,7.1582,13970:1,32.7,"Low comuting micropolitan, Rural and Small towns",1,5192,13724,7719,6005,10819,1898,24.4,40.6,25.1,9.9,2457,38680,8,5.726556908,22,4.6,16
12,45,Florida,Gulf County,16164,12045,29.935431,-85.242706,5844,11,1,0,3954,0.247,5,Micropolitan,18.30739406,7,43.77736,2284:01:00,35.6,Metropolitan/Urban,1,6644,16164,9461,6703,12902,2755,15.1,37.3,29.9,17.7,2667,45426,25,15.63477173,21,4.7,12
12,47,Florida,Hamilton County,14310,12047,30.49674,-82.949989,4487,13.8,0,0,3247,0.228,6,Micropolitan,22.98926463,3,20.88991,4787:01:00,39.7,"Low comuting micropolitan, Rural and Small towns",1,5481,14310,8283,6027,9008,4700,23.9,44,22.8,9.3,3209,36299,12,8.355964069,23,5.0,15
12,49,Florida,Hardee County,27245,12049,27.492939,-81.809563,7402,15.1,1,0,5531,0.202,5,Micropolitan,18.78949907,4,14.61988,6840:01:00,37.7,Metropolitan/Urban,1,9983,27245,14376,12869,24095,2035,24.2,47.9,17.4,10.4,6956,39169,36,13.15789474,29,5.0,15
12,51,Florida,Hendry County,41556,12051,26.553869,-81.164688,10281,10.5,1,3,6808,0.174,5,Micropolitan,15.2581581,14,35.63248,2806:01:00,32.8,Metropolitan/Urban,1,16448,41556,22163,19393,34753,5010,34.3,34.8,22.7,8.2,9850,44391,35,8.908119114,24,4.4,11
12,53,Florida,Hernando County,190865,12053,28.553644,-82.427002,80260,11.8,2,44,61882,0.345,2,Metropolitan,17.08730508,94,51.41248,1945:01:00,31.6,Metropolitan/Urban,0,62930,190865,91975,98890,171403,11411,12.6,36.4,33.5,17.5,26646,45884,117,6.399212405,19,4.5,15
12,55,Florida,Highlands County,105424,12055,27.342546,-81.340721,51301,10.6,2,38,41387,0.413,3,Metropolitan,16.87656246,65,64.40937,1553:01:00,30.5,Metropolitan/Urban,0,29709,105424,51515,53909,90075,11064,15.3,38,29.8,17,21577,39994,123,12.1882339,21,4.4,16
12,57,Florida,Hillsborough County,1436888,12057,27.927656,-82.320129,378046,9.2,8,432,257269,0.19,1,Metropolitan,16.55315199,1145,83.19782,1202:01:00,25.6,Metropolitan/Urban,0,605936,1436888,702940,733948,1067329,256401,11.6,27.1,28.6,32.7,207358,58361,1039,7.549566281,19,3.9,10
12,59,Florida,Holmes County,19477,12059,30.867476,-85.813194,6551,12.3,1,0,4989,0.256,6,Micropolitan,21.35409882,7,35.92138,2784:01:00,32.2,"Low comuting micropolitan, Rural and Small towns",1,7365,19477,10336,9141,17333,1314,22.6,39,28.1,10.3,4232,38040,26,13.34222815,23,5.0,13
12,61,Florida,Indian River County,157413,12061,27.69309,-80.605568,76553,9.3,2,40,57277,0.387,1,Metropolitan,15.70814849,102,67.29875,1486:01:00,27.2,Metropolitan/Urban,0,45936,157413,75421,81992,136812,14926,11.3,29.7,30.6,28.3,16775,58228,147,9.698937076,16,4.0,12
12,63,Florida,Jackson County,48305,12063,30.79546,-85.215004,15857,13.8,1,7,12035,0.248,8,Rural and Small towns,24.44862516,20,41.46883,2411:01:00,34.8,"Low comuting micropolitan, Rural and Small towns",1,19470,48305,26615,21690,33425,12972,19.3,37.4,29.8,13.4,9492,39545,56,11.61127123,26,4.8,16
12,65,Florida,Jefferson County,14288,12065,30.436691,-83.894424,5614,10.6,0,0,4326,0.307,2,Metropolitan,16.07531535,3,21.57342,4635:01:00,34.3,Metropolitan/Urban,0,5345,14288,7491,6797,9013,4902,17.9,33.3,26.7,22,2317,46332,14,10.06759672,17,4.3,13
12,67,Florida,Lafayette County,8732,12067,29.984842,-83.181664,2379,14.2,0,0,1667,0.192,9,Rural and Small towns,22.13213934,1,11.60497,8617:01:00,35.5,"Low comuting micropolitan, Rural and Small towns",1,3687,8732,4986,3746,7325,1179,23.9,40.8,19.6,15.8,1521,42689,15,17.40745039,23,4.6,13
12,69,Florida,Lake County,356495,12069,28.76202,-81.712509,143947,9.7,4,158,107419,0.329,1,Metropolitan,16.89663784,242,72.15351,1386:01:00,30.2,Metropolitan/Urban,0,120667,356495,172515,183980,297834,40389,10.7,32.9,33.7,22.7,40582,52447,277,8.258893964,15,3.9,13
12,71,Florida,Lee County,754610,12071,26.584103,-81.883995,321998,8.1,4,141,239488,0.342,1,Metropolitan,14.01089448,446,61.74412,1620:01:00,25.4,Metropolitan/Urban,0,248261,754610,369372,385238,654951,68511,12,30.8,29.4,27.8,90400,56343,451,6.243631773,17,3.8,11
12,73,Florida,Leon County,292502,12073,30.459557,-84.27491,70830,8.8,2,60,49057,0.172,1,Metropolitan,14.31004937,240,83.38487,1199:01:00,28.8,Metropolitan/Urban,0,104397,292502,138642,153860,180974,92629,6.4,19.1,28.8,45.7,57656,51046,392,13.61952874,15,3.9,9
12,75,Florida,Levy County,40770,12075,29.318298,-82.740074,16590,11.4,1,0,12422,0.313,5,Micropolitan,22.1638661,7,17.51708,5709:01:00,30.3,Metropolitan/Urban,1,13634,40770,19903,20867,35518,3825,15.7,41.1,30.5,12.6,6521,39037,38,9.50927154,21,4.7,14
12,77,Florida,Liberty County,8457,12077,30.237659,-84.882927,2271,12.8,0,0,1621,0.194,2,Metropolitan,21.35011984,,33.24130155,,37.7,Metropolitan/Urban,0,3979,8457,5215,3242,6513,1654,18.6,47.9,20.8,12.7,1523,40814,8,9.753718605,22,4.8,12
12,79,Florida,Madison County,18529,12079,30.44397,-83.473984,6409,14.8,1,0,4779,0.258,3,Metropolitan,19.46753825,2,10.97454,9112:01:00,33.9,Metropolitan/Urban,0,7268,18529,9799,8730,11020,7001,19.3,38.1,28.8,13.8,3752,38249,27,14.81562774,22,4.6,17
12,81,Florida,Manatee County,394855,12081,27.47197,-82.318314,166471,7.4,3,90,120595,0.332,1,Metropolitan,16.11503204,205,54.53752,1834:01:00,27.8,Metropolitan/Urban,0,130524,394855,190647,204208,340200,36105,10.8,30.4,29.5,29.3,40662,59587,287,7.635253054,16,3.8,11
12,83,Florida,Marion County,359977,12083,29.212271,-82.058037,153588,11.8,2,110,119425,0.347,2,Metropolitan,17.78797989,205,58.73589,1703:01:00,29.9,Metropolitan/Urban,0,115529,359977,172642,187335,295682,48500,12.7,37.5,30.5,19.4,52818,44517,253,7.24886826,20,4.5,14
12,85,Florida,Martin County,160912,12085,27.077208,-80.431099,74991,6.4,1,74,57914,0.372,1,Metropolitan,13.2561439,102,64.27181,1556:01:00,20.5,Metropolitan/Urban,0,49757,160912,79518,81394,145047,9249,9.5,25.2,32.4,33,16824,61592,149,9.388724709,14,3.4,10
12,86,Florida,Miami-Dade County,2761581,12086,25.611237,-80.551704,792811,6.7,17,593,563748,0.209,1,Metropolitan,13.51362174,2177,80.2449,1246:01:00,22.7,Metropolitan/Urban,0,1178749,2761581,1340718,1420863,2177101,495637,18.5,27.7,24.9,28.8,436103,52043,1327,4.891363445,21,3.6,8
12,87,Florida,Monroe County,75027,12087,25.209047,-81.078125,29714,4.8,3,14,22310,0.291,5,Micropolitan,15.98241262,59,74.61082,1340:01:00,22.3,Metropolitan/Urban,1,29327,75027,39005,36022,66987,5149,8.7,27.3,30.7,33.3,8859,67094,93,11.76068895,14,3.8,8
12,89,Florida,Nassau County,85832,12089,30.610371,-81.802979,32368,8.6,1,0,21894,0.279,3,Metropolitan,15.85476571,37,45.89318,2179:01:00,30.4,Metropolitan/Urban,0,30896,85832,42254,43578,77766,5189,8.6,32.7,30.4,28.2,8882,66898,95,11.78338419,17,4.1,13
12,91,Florida,Okaloosa County,207269,12091,30.691431,-86.592674,61013,10.1,3,57,41694,0.211,1,Metropolitan,17.35434661,155,77.04926,1298:01:00,28.8,Metropolitan/Urban,0,81804,207269,104997,102272,168142,21439,8.2,24.7,36.5,30.6,25612,62779,183,9.096783815,16,4.0,11
12,93,Florida,Okeechobee County,41537,12093,27.386335,-80.889442,13596,12.2,1,8,10230,0.254,5,Micropolitan,21.46614238,20,49.61056,2016:01:00,33.3,Metropolitan/Urban,1,15871,41537,22289,19248,36051,3759,25,38.4,25.2,11.4,8283,42258,35,8.681847497,26,5.0,15
12,95,Florida,Orange County,1380645,12095,28.513676,-81.317993,319577,9.3,3,388,206342,0.16,1,Metropolitan,14.54695339,1095,83.31006,1200:01:00,25.6,Metropolitan/Urban,0,611222,1380645,677345,703300,940371,313423,11.5,24.5,30.1,33.8,211307,58037,960,7.303896096,18,4.1,9
12,97,Florida,Osceola County,367990,12097,28.063122,-81.148827,88221,11,3,66,57062,0.175,1,Metropolitan,16.39119838,142,42.26002,2366:01:00,29,Metropolitan/Urban,0,155982,367990,181463,186527,292099,50979,13.2,31.9,34.3,20.5,48711,50473,157,4.672410458,23,4.6,11
12,99,Florida,Palm Beach County,1485941,12099,26.646763,-80.465363,552802,7.7,12,401,414928,0.291,1,Metropolitan,13.36608864,1143,79.16554,1263:01:00,21.7,Metropolitan/Urban,0,537875,1485941,720762,765179,1112092,292762,11.8,24.5,28,35.7,179359,61735,930,6.441290752,16,3.8,11
12,101,Florida,Pasco County,539630,12101,28.308109,-82.402275,194940,10.3,6,166,142985,0.287,1,Metropolitan,20.73052755,301,58.74684,1702:01:00,31.1,Metropolitan/Urban,0,197376,539630,262406,277224,474500,34893,11,33.1,32.5,23.4,67164,53788,283,5.523373825,19,4.6,13
12,103,Florida,Pinellas County,975280,12103,27.931303,-82.722397,398305,8,10,279,293786,0.309,1,Metropolitan,17.44587594,859,89.41118,1118:01:00,26.3,Metropolitan/Urban,0,354853,975280,467828,507452,805704,107793,8.9,28.3,31.9,31,112593,52226,727,7.56716247,16,3.9,11
12,105,Florida,Polk County,708009,12105,27.950272,-81.697327,230043,12.6,5,145,169578,0.26,1,Metropolitan,16.92735661,328,49.23823,2031:01:00,35.3,Metropolitan/Urban,0,262149,708009,346929,361080,558736,114154,15.2,35.4,29.4,20,109018,51354,537,8.061259568,20,4.3,14
12,107,Florida,Putnam County,74163,12107,29.607798,-81.742302,28633,14.2,1,10,21116,0.292,5,Micropolitan,24.89182312,29,40.12341,2492:01:00,36.4,Metropolitan/Urban,1,24450,74163,36699,37464,59598,12146,19.1,40.7,27.8,12.4,13697,39578,76,10.51510162,25,5.3,15
12,109,Florida,St. Johns County,254261,12109,29.900965,-81.435898,87839,6.1,1,47,57092,0.252,1,Metropolitan,13.40964645,224,95.28387,1049:01:00,21.1,Metropolitan/Urban,0,93494,254261,124017,130244,225737,14082,5.4,21.4,29.4,43.7,16642,81925,161,6.848528417,11,3.4,8
12,111,Florida,St. Lucie County,321128,12111,27.37764,-80.471069,122589,8.9,2,69,87591,0.293,1,Metropolitan,17.33598231,115,37.51953,2665:01:00,26.9,Metropolitan/Urban,0,112023,321128,156975,164153,237815,67410,13.9,33.7,32.1,20.3,38398,53377,174,5.676868718,17,4.1,13
12,113,Florida,Santa Rosa County,179349,12113,30.693415,-87.024582,53604,9.9,3,16,34353,0.206,1,Metropolitan,19.42959214,126,73.90159,1353:01:00,22.8,Metropolitan/Urban,0,72598,179349,91404,87945,156117,11588,8.4,27.2,36.3,28.1,16404,69541,132,7.742071708,15,3.9,12
12,115,Florida,Sarasota County,426718,12115,27.185461,-82.331741,223162,5.7,4,118,174026,0.43,1,Metropolitan,12.6977611,321,77.80517,1285:01:00,28.5,Metropolitan/Urban,0,118868,426718,203342,223376,390562,20381,7.2,29.1,29.1,34.7,43389,61652,374,9.065150314,13,3.6,10
12,117,Florida,Seminole County,467832,12117,28.715858,-81.240601,133369,8.5,2,38,92794,0.207,1,Metropolitan,15.81163036,360,79.03767,1265:01:00,28.2,Metropolitan/Urban,0,197331,467832,226010,241822,369298,60458,5.7,21.7,34.3,38.2,46050,67187,300,6.586472702,16,3.7,10
12,119,Florida,Sumter County,128754,12119,28.701818,-82.07943,92044,9.9,0,0,74936,0.642,4,Micropolitan,10.45443493,45,36.29149,2755:01:00,28.3,Metropolitan/Urban,1,23680,128754,64194,64560,116032,9606,8.4,30.2,30.2,31.1,11183,55324,67,5.40340011,13,3.5,15
12,121,Florida,Suwannee County,44191,12121,30.19746,-82.990997,15703,11.5,1,0,11617,0.265,8,Rural and Small towns,20.15010555,6,13.70051,7299:01:00,37.6,"Low comuting micropolitan, Rural and Small towns",1,15783,44191,22743,21448,37178,5649,18.5,39.3,27.5,14.7,7999,38525,47,10.73206375,23,4.7,14
12,123,Florida,Taylor County,21623,12123,30.048481,-83.604454,7318,11.7,1,6,5833,0.261,8,Rural and Small towns,21.16808077,7,31.56708,3168:01:00,33.3,"Low comuting micropolitan, Rural and Small towns",1,8387,21623,11798,9825,16515,4243,22.6,43.3,26.8,7.4,4130,42307,34,15.33258174,20,4.7,13
12,125,Florida,Union County,14940,12125,30.04413,-82.374977,4414,12.8,1,0,3196,0.209,5,Micropolitan,24.86143478,3,19.81244,5047:01:00,38.2,Metropolitan/Urban,1,6310,14940,9623,5317,11098,3384,23.1,37.9,30.7,8.3,2118,45906,7,4.622903183,24,4.6,14
12,127,Florida,Volusia County,547538,12127,29.058588,-81.182632,217588,10.2,5,148,160876,0.31,1,Metropolitan,18.13428883,362,68.38395,1462:01:00,27.9,Metropolitan/Urban,0,188770,547538,267217,280321,459380,62341,10,32.2,34.2,23.6,70499,50285,393,7.424003143,19,4.4,14
12,129,Florida,Wakulla County,32461,12129,30.165489,-84.398949,9590,7.6,0,0,6317,0.2,2,Metropolitan,19.06390478,10,31.35484,3189:01:00,38.8,Metropolitan/Urban,0,13662,32461,17327,15134,26996,4253,12.1,35.9,33.6,18.4,3543,58203,32,10.03354968,17,3.9,9
12,131,Florida,Walton County,71375,12131,30.64204,-86.169357,25880,10.8,2,28,16604,0.262,3,Metropolitan,18.95716923,34,51.60194,1938:01:00,31.5,Metropolitan/Urban,0,26870,71375,36080,35295,64033,3743,11.5,27.6,32.5,28.4,7868,60973,64,9.713305711,19,4.3,12
12,133,Florida,Washington County,24880,12133,30.613592,-85.660027,7766,13,1,0,5555,0.227,4,Micropolitan,21.1610221,5,20.35085,4914:01:00,36.7,Metropolitan/Urban,1,10045,24880,13350,11530,20014,3697,18.8,41.5,28,11.7,5104,39225,29,11.80349221,23,4.7,14
13,1,Georgia,Appling County,18507,13001,31.748472,-82.289093,5692,16.2,1,3,4208,0.228,7,Rural and Small towns,20.20040121,8,43.4122,2304:01:00,36.1,"Low comuting micropolitan, Rural and Small towns",1,6715,18507,9240,9267,14298,3632,25.5,38.3,26.5,9.7,3954,42781,27,14.6516171,21,4.3,13
13,3,Georgia,Atkinson County,8297,13003,31.296335,-82.875458,2176,12.4,0,0,1451,0.175,7,Rural and Small towns,23.55266878,,30.54212364,,32.1,"Low comuting micropolitan, Rural and Small towns",1,3191,8297,4188,4109,6403,1420,30.9,40.3,18.9,9.9,2156,36779,5,6.043756799,27,4.9,13
13,5,Georgia,Bacon County,11185,13005,31.554565,-82.459366,3159,17.4,1,4,2329,0.206,6,Micropolitan,19.99915848,5,43.96764,2274:01:00,33,"Low comuting micropolitan, Rural and Small towns",1,4233,11185,5468,5717,8987,1867,18.5,41.9,29.6,10.1,2473,38775,13,11.43158635,19,4.3,12
13,7,Georgia,Baker County,3092,13007,31.326698,-84.442184,1210,17.9,0,0,919,0.283,2,Metropolitan,18.21963125,,36.39788039,,32.5,Metropolitan/Urban,0,1050,3092,1529,1563,1617,1388,21.7,38.9,27.1,12.3,704,38288,2,6.349206349,19,3.9,17
13,9,Georgia,Baldwin County,44823,13009,33.068825,-83.247017,12935,10.7,1,12,9287,0.204,4,Micropolitan,24.10759283,26,57.59348,1736:01:00,34.1,Metropolitan/Urban,1,15245,44823,22742,22081,24221,19093,15.6,36.4,27.1,20.9,9313,42727,41,9.082048556,24,4.7,12
13,11,Georgia,Banks County,18988,13011,34.356071,-83.496445,5913,9.4,0,0,4207,0.229,6,Micropolitan,19.4769147,3,16.30701,6132:01:00,31.6,"Low comuting micropolitan, Rural and Small towns",1,7326,18988,9645,9343,17786,541,22.9,40.6,23.6,12.8,2469,55384,19,10.32777083,17,4.1,12
13,13,Georgia,Barrow County,80809,13013,33.991486,-83.714363,19392,17,1,6,12454,0.166,2,Metropolitan,18.116682,16,20.74527,4820:01:00,35.2,Metropolitan/Urban,0,33983,80809,39597,41212,65119,10064,17,34.4,31.1,17.6,7651,61413,64,8.298109587,18,4.0,13
13,15,Georgia,Bartow County,106408,13015,34.23732,-84.838875,28819,12.7,1,21,18389,0.179,1,Metropolitan,19.22099374,48,46.23966,2163:01:00,35,Metropolitan/Urban,0,43045,106408,52478,53930,90343,12020,17,33,30.6,19.5,12768,57409,78,7.513944146,18,3.9,13
13,17,Georgia,Ben Hill County,16787,13017,31.76096,-83.221451,5201,11.7,1,5,3982,0.231,4,Micropolitan,23.26292478,8,46.39564,2155:01:00,33.9,Metropolitan/Urban,1,6090,16787,7965,8822,10240,6061,17.3,44.2,26.4,12,4305,35020,19,11.01896422,26,4.9,13
13,19,Georgia,Berrien County,19252,13019,31.2759,-83.225296,5909,12,1,0,4266,0.224,3,Metropolitan,21.64274181,3,15.79529,6331:01:00,33.8,Metropolitan/Urban,0,7222,19252,9454,9798,16567,2116,21.9,42.3,23.9,11.8,4144,39412,12,6.318117201,20,4.4,15
13,21,Georgia,Bibb County,153095,13021,32.809044,-83.704895,43088,12.4,3,117,31993,0.208,1,Metropolitan,21.30915904,195,127.65122,783:01:00,35.6,Metropolitan/Urban,0,56854,153095,71847,81248,61678,85007,14.3,31.6,28.5,25.7,36326,41390,212,13.87797853,22,4.4,14
13,23,Georgia,Bleckley County,12838,13023,32.43829,-83.330353,3837,7,1,0,2860,0.224,4,Micropolitan,18.93533858,4,30.8404,3243:01:00,35.4,Metropolitan/Urban,1,4526,12838,6124,6714,9087,3420,12.4,41.7,28.7,17.2,2156,46019,16,12.33616037,19,4.1,13
13,25,Georgia,Brantley County,18897,13025,31.195766,-81.97744,5702,5.9,0,0,3792,0.206,3,Metropolitan,22.75139645,3,16.34432,6118:01:00,31.7,Metropolitan/Urban,0,7217,18897,9312,9585,17705,689,20,46.6,25.2,8.2,3419,41874,14,7.627349496,20,4.5,12
13,27,Georgia,Brooks County,15513,13027,30.839226,-83.583031,5462,10.6,1,0,4099,0.262,4,Micropolitan,20.02407498,4,25.49882,3922:01:00,30.9,Metropolitan/Urban,1,5555,15513,7569,7944,9568,5421,17.2,38.1,29.5,15.2,3768,36354,18,11.47446931,22,4.3,14
13,29,Georgia,Bryan County,38109,13029,32.009792,-81.440033,7966,11.2,0,0,4985,0.143,3,Metropolitan,18.31166106,30,82.80431,1208:01:00,32.4,Metropolitan/Urban,0,16125,38109,18795,19314,30141,5656,8.1,25.6,33.8,32.6,3264,79658,32,8.832459288,16,3.6,12
